[
  {
    "stop_id": "32769",
    "stop_code": "151131",
    "stop_name": "Forest Office Road",
    "stop_desc": "",
    "stop_lat": "18.51983",
    "stop_lon": "73.63158",
    "zone_id": "",
    "stop_url": "",
    "location_type": "",
    "parent_station": "",
    "stop_timezone": "",
    "wheelchair_boarding": ""
  },
  {
    "stop_id": "32770",
    "stop_code": "152339",
    "stop_name": "Kusalkar Putala",
    "stop_desc": "",
    "stop_lat": "18.52889",
    "stop_lon": "73.82708",
    "zone_id": "",
    "stop_url": "",
    "location_type": "",
    "parent_station": "",
    "stop_timezone": "",
    "wheelchair_boarding": ""
  },
  {
    "stop_id": "32771",
    "stop_code": "154648",
    "stop_name": "Tower Line",
    "stop_desc": "",
    "stop_lat": "18.67007",
    "stop_lon": "73.78613",
    "zone_id": "",
    "stop_url": "",
    "location_type": "",
    "parent_station": "",
    "stop_timezone": "",
    "wheelchair_boarding": ""
  },
  {
    "stop_id": "32772",
    "stop_code": "153069",
    "stop_name": "Nehrunagar Depot",
    "stop_desc": "",
    "stop_lat": "18.6293",
    "stop_lon": "73.81942",
    "zone_id": "",
    "stop_url": "",
    "location_type": "",
    "parent_station": "",
    "stop_timezone": "",
    "wheelchair_boarding": ""
  },
  {
    "stop_id": "32773",
    "stop_code": "151724",
    "stop_name": "Jagtap Chowk",
    "stop_desc": "",
    "stop_lat": "18.49153",
    "stop_lon": "73.90019",
    "zone_id": "",
    "stop_url": "",
    "location_type": "",
    "parent_station": "",
    "stop_timezone": "",
    "wheelchair_boarding": ""
  },
  {
    "stop_id": "32774",
    "stop_code": "150534",
    "stop_name": "Bhosalevasti Nagar Road",
    "stop_desc": "",
    "stop_lat": "18.71115",
    "stop_lon": "74.04588",
    "zone_id": "",
    "stop_url": "",
    "location_type": "",
    "parent_station": "",
    "stop_timezone": "",
    "wheelchair_boarding": ""
  },
  {
    "stop_id": "32775",
    "stop_code": "152190",
    "stop_name": "Kirkatwadi Phata",
    "stop_desc": "",
    "stop_lat": "18.44996",
    "stop_lon": "73.79089",
    "zone_id": "",
    "stop_url": "",
    "location_type": "",
    "parent_station": "",
    "stop_timezone": "",
    "wheelchair_boarding": ""
  },
  {
    "stop_id": "32776",
    "stop_code": "150995",
    "stop_name": "Dhayari Phata",
    "stop_desc": "",
    "stop_lat": "18.46107",
    "stop_lon": "73.81317",
    "zone_id": "",
    "stop_url": "",
    "location_type": "",
    "parent_station": "",
    "stop_timezone": "",
    "wheelchair_boarding": ""
  },
  {
    "stop_id": "32778",
    "stop_code": "154748",
    "stop_name": "Vadhu Bk",
    "stop_desc": "",
    "stop_lat": "18.66617",
    "stop_lon": "74.03972",
    "zone_id": "",
    "stop_url": "",
    "location_type": "",
    "parent_station": "",
    "stop_timezone": "",
    "wheelchair_boarding": ""
  },
  {
    "stop_id": "32779",
    "stop_code": "152694",
    "stop_name": "Masulkar Colony",
    "stop_desc": "",
    "stop_lat": "18.63368",
    "stop_lon": "73.80691",
    "zone_id": "",
    "stop_url": "",
    "location_type": "",
    "parent_station": "",
    "stop_timezone": "",
    "wheelchair_boarding": ""
  },
  {
    "stop_id": "32781",
    "stop_code": "150411",
    "stop_name": "Bedekar Ganpati Mandir",
    "stop_desc": "",
    "stop_lat": "18.51154",
    "stop_lon": "73.8172",
    "zone_id": "",
    "stop_url": "",
    "location_type": "",
    "parent_station": "",
    "stop_timezone": "",
    "wheelchair_boarding": ""
  },
  {
    "stop_id": "32782",
    "stop_code": "150465",
    "stop_name": "Bhandarkar Road",
    "stop_desc": "",
    "stop_lat": "18.51485",
    "stop_lon": "73.8288",
    "zone_id": "",
    "stop_url": "",
    "location_type": "",
    "parent_station": "",
    "stop_timezone": "",
    "wheelchair_boarding": ""
  },
  {
    "stop_id": "32783",
    "stop_code": "150620",
    "stop_name": "Budhrani Hospital",
    "stop_desc": "",
    "stop_lat": "18.533",
    "stop_lon": "73.88619",
    "zone_id": "",
    "stop_url": "",
    "location_type": "",
    "parent_station": "",
    "stop_timezone": "",
    "wheelchair_boarding": ""
  },
  {
    "stop_id": "32786",
    "stop_code": "152307",
    "stop_name": "Kulkarni Petrol Pump",
    "stop_desc": "",
    "stop_lat": "18.51301",
    "stop_lon": "73.84442",
    "zone_id": "",
    "stop_url": "",
    "location_type": "",
    "parent_station": "",
    "stop_timezone": "",
    "wheelchair_boarding": ""
  },
  {
    "stop_id": "32787",
    "stop_code": "152687",
    "stop_name": "Maruti Mandir Vajewadi",
    "stop_desc": "",
    "stop_lat": "18.72614",
    "stop_lon": "74.04912",
    "zone_id": "",
    "stop_url": "",
    "location_type": "",
    "parent_station": "",
    "stop_timezone": "",
    "wheelchair_boarding": ""
  },
  {
    "stop_id": "32790",
    "stop_code": "151124",
    "stop_name": "Fatima Nagar Wanowrie",
    "stop_desc": "",
    "stop_lat": "18.50629",
    "stop_lon": "73.90107",
    "zone_id": "",
    "stop_url": "",
    "location_type": "",
    "parent_station": "",
    "stop_timezone": "",
    "wheelchair_boarding": ""
  },
  {
    "stop_id": "32792",
    "stop_code": "154659",
    "stop_name": "Trimurti Hall",
    "stop_desc": "",
    "stop_lat": "18.65314",
    "stop_lon": "73.77467",
    "zone_id": "",
    "stop_url": "",
    "location_type": "",
    "parent_station": "",
    "stop_timezone": "",
    "wheelchair_boarding": ""
  },
  {
    "stop_id": "32793",
    "stop_code": "153920",
    "stop_name": "Sandesh Model Colony",
    "stop_desc": "",
    "stop_lat": "18.71611",
    "stop_lon": "73.84864",
    "zone_id": "",
    "stop_url": "",
    "location_type": "",
    "parent_station": "",
    "stop_timezone": "",
    "wheelchair_boarding": ""
  },
  {
    "stop_id": "32794",
    "stop_code": "150811",
    "stop_name": "D2 Circle",
    "stop_desc": "",
    "stop_lat": "18.45031",
    "stop_lon": "73.75115",
    "zone_id": "",
    "stop_url": "",
    "location_type": "",
    "parent_station": "",
    "stop_timezone": "",
    "wheelchair_boarding": ""
  },
  {
    "stop_id": "32796",
    "stop_code": "154090",
    "stop_name": "Sharwari Complex",
    "stop_desc": "",
    "stop_lat": "18.62335",
    "stop_lon": "73.68673",
    "zone_id": "",
    "stop_url": "",
    "location_type": "",
    "parent_station": "",
    "stop_timezone": "",
    "wheelchair_boarding": ""
  },
  {
    "stop_id": "32797",
    "stop_code": "151853",
    "stop_name": "Jyoti English School",
    "stop_desc": "",
    "stop_lat": "18.63077",
    "stop_lon": "73.82371",
    "zone_id": "",
    "stop_url": "",
    "location_type": "",
    "parent_station": "",
    "stop_timezone": "",
    "wheelchair_boarding": ""
  },
  {
    "stop_id": "32798",
    "stop_code": "152078",
    "stop_name": "Kedarinagar",
    "stop_desc": "",
    "stop_lat": "18.4888",
    "stop_lon": "73.90011",
    "zone_id": "",
    "stop_url": "",
    "location_type": "",
    "parent_station": "",
    "stop_timezone": "",
    "wheelchair_boarding": ""
  },
  {
    "stop_id": "32799",
    "stop_code": "154071",
    "stop_name": "Shaniwarwada",
    "stop_desc": "",
    "stop_lat": "18.52129",
    "stop_lon": "73.85528",
    "zone_id": "",
    "stop_url": "",
    "location_type": "",
    "parent_station": "",
    "stop_timezone": "",
    "wheelchair_boarding": ""
  },
  {
    "stop_id": "32800",
    "stop_code": "150693",
    "stop_name": "Chaudharivasti Nagar Road",
    "stop_desc": "",
    "stop_lat": "18.68797",
    "stop_lon": "74.04313",
    "zone_id": "",
    "stop_url": "",
    "location_type": "",
    "parent_station": "",
    "stop_timezone": "",
    "wheelchair_boarding": ""
  },
  {
    "stop_id": "32801",
    "stop_code": "151068",
    "stop_name": "Durvankur Bungalow",
    "stop_desc": "",
    "stop_lat": "18.49001",
    "stop_lon": "73.82566",
    "zone_id": "",
    "stop_url": "",
    "location_type": "",
    "parent_station": "",
    "stop_timezone": "",
    "wheelchair_boarding": ""
  },
  {
    "stop_id": "32805",
    "stop_code": "153486",
    "stop_name": "Pradhikaran Police Chowky",
    "stop_desc": "",
    "stop_lat": "18.65062",
    "stop_lon": "73.76714",
    "zone_id": "",
    "stop_url": "",
    "location_type": "",
    "parent_station": "",
    "stop_timezone": "",
    "wheelchair_boarding": ""
  },
  {
    "stop_id": "32807",
    "stop_code": "151306",
    "stop_name": "Gavkos Maruti",
    "stop_desc": "",
    "stop_lat": "18.52088",
    "stop_lon": "73.86135",
    "zone_id": "",
    "stop_url": "",
    "location_type": "",
    "parent_station": "",
    "stop_timezone": "",
    "wheelchair_boarding": ""
  },
  {
    "stop_id": "32808",
    "stop_code": "152093",
    "stop_name": "Kemsewadi Shala",
    "stop_desc": "",
    "stop_lat": "18.58329",
    "stop_lon": "73.61864",
    "zone_id": "",
    "stop_url": "",
    "location_type": "",
    "parent_station": "",
    "stop_timezone": "",
    "wheelchair_boarding": ""
  },
  {
    "stop_id": "32810",
    "stop_code": "154674",
    "stop_name": "Tulsi Chemicals",
    "stop_desc": "",
    "stop_lat": "18.62798",
    "stop_lon": "73.83203",
    "zone_id": "",
    "stop_url": "",
    "location_type": "",
    "parent_station": "",
    "stop_timezone": "",
    "wheelchair_boarding": ""
  },
  {
    "stop_id": "32811",
    "stop_code": "155037",
    "stop_name": "Yerawada",
    "stop_desc": "",
    "stop_lat": "18.54528",
    "stop_lon": "73.88416",
    "zone_id": "",
    "stop_url": "",
    "location_type": "",
    "parent_station": "",
    "stop_timezone": "",
    "wheelchair_boarding": ""
  },
  {
    "stop_id": "32813",
    "stop_code": "150892",
    "stop_name": "Dattawadi Kasarsai",
    "stop_desc": "",
    "stop_lat": "18.62155",
    "stop_lon": "73.69126",
    "zone_id": "",
    "stop_url": "",
    "location_type": "",
    "parent_station": "",
    "stop_timezone": "",
    "wheelchair_boarding": ""
  },
  {
    "stop_id": "32814",
    "stop_code": "150754",
    "stop_name": "Chintamani Society",
    "stop_desc": "",
    "stop_lat": "18.48614",
    "stop_lon": "73.84581",
    "zone_id": "",
    "stop_url": "",
    "location_type": "",
    "parent_station": "",
    "stop_timezone": "",
    "wheelchair_boarding": ""
  },
  {
    "stop_id": "32817",
    "stop_code": "154317",
    "stop_name": "Sindhunagar",
    "stop_desc": "",
    "stop_lat": "18.6558",
    "stop_lon": "73.77077",
    "zone_id": "",
    "stop_url": "",
    "location_type": "",
    "parent_station": "",
    "stop_timezone": "",
    "wheelchair_boarding": ""
  },
  {
    "stop_id": "32819",
    "stop_code": "153001",
    "stop_name": "Nashik Phata",
    "stop_desc": "",
    "stop_lat": "18.60936",
    "stop_lon": "73.82272",
    "zone_id": "",
    "stop_url": "",
    "location_type": "",
    "parent_station": "",
    "stop_timezone": "",
    "wheelchair_boarding": ""
  },
  {
    "stop_id": "32820",
    "stop_code": "153356",
    "stop_name": "Pimpavali Phata",
    "stop_desc": "",
    "stop_lat": "18.59446",
    "stop_lon": "73.60862",
    "zone_id": "",
    "stop_url": "",
    "location_type": "",
    "parent_station": "",
    "stop_timezone": "",
    "wheelchair_boarding": ""
  },
  {
    "stop_id": "32821",
    "stop_code": "151332",
    "stop_name": "Ghavtenagar",
    "stop_desc": "",
    "stop_lat": "18.52508",
    "stop_lon": "73.96693",
    "zone_id": "",
    "stop_url": "",
    "location_type": "",
    "parent_station": "",
    "stop_timezone": "",
    "wheelchair_boarding": ""
  },
  {
    "stop_id": "32822",
    "stop_code": "153759",
    "stop_name": "Raviraj Residency",
    "stop_desc": "",
    "stop_lat": "18.50432",
    "stop_lon": "73.79257",
    "zone_id": "",
    "stop_url": "",
    "location_type": "",
    "parent_station": "",
    "stop_timezone": "",
    "wheelchair_boarding": ""
  },
  {
    "stop_id": "32823",
    "stop_code": "152312",
    "stop_name": "Kumbare Park",
    "stop_desc": "",
    "stop_lat": "18.50324",
    "stop_lon": "73.79804",
    "zone_id": "",
    "stop_url": "",
    "location_type": "",
    "parent_station": "",
    "stop_timezone": "",
    "wheelchair_boarding": ""
  },
  {
    "stop_id": "16440",
    "stop_code": "111715",
    "stop_name": "Vaiduwadi",
    "stop_desc": "",
    "stop_lat": "18.50374",
    "stop_lon": "73.92207",
    "zone_id": "",
    "stop_url": "",
    "location_type": "",
    "parent_station": "",
    "stop_timezone": "",
    "wheelchair_boarding": ""
  },
  {
    "stop_id": "32825",
    "stop_code": "150277",
    "stop_name": "Autadewadi Phata",
    "stop_desc": "",
    "stop_lat": "18.44699",
    "stop_lon": "73.93326",
    "zone_id": "",
    "stop_url": "",
    "location_type": "",
    "parent_station": "",
    "stop_timezone": "",
    "wheelchair_boarding": ""
  },
  {
    "stop_id": "32828",
    "stop_code": "152634",
    "stop_name": "Mangdewadi Petrol Pump",
    "stop_desc": "",
    "stop_lat": "18.43629",
    "stop_lon": "73.86051",
    "zone_id": "",
    "stop_url": "",
    "location_type": "",
    "parent_station": "",
    "stop_timezone": "",
    "wheelchair_boarding": ""
  },
  {
    "stop_id": "32829",
    "stop_code": "154879",
    "stop_name": "Vitbhatti Charholi",
    "stop_desc": "",
    "stop_lat": "18.65849",
    "stop_lon": "73.89685",
    "zone_id": "",
    "stop_url": "",
    "location_type": "",
    "parent_station": "",
    "stop_timezone": "",
    "wheelchair_boarding": ""
  },
  {
    "stop_id": "32830",
    "stop_code": "153748",
    "stop_name": "Rautnagar",
    "stop_desc": "",
    "stop_lat": "18.51753",
    "stop_lon": "73.69584",
    "zone_id": "",
    "stop_url": "",
    "location_type": "",
    "parent_station": "",
    "stop_timezone": "",
    "wheelchair_boarding": ""
  },
  {
    "stop_id": "32831",
    "stop_code": "150772",
    "stop_name": "CIRT",
    "stop_desc": "",
    "stop_lat": "18.611",
    "stop_lon": "73.82327",
    "zone_id": "",
    "stop_url": "",
    "location_type": "",
    "parent_station": "",
    "stop_timezone": "",
    "wheelchair_boarding": ""
  },
  {
    "stop_id": "32832",
    "stop_code": "151350",
    "stop_name": "Ghotawade Road Petrol Pump",
    "stop_desc": "",
    "stop_lat": "18.54272",
    "stop_lon": "73.66937",
    "zone_id": "",
    "stop_url": "",
    "location_type": "",
    "parent_station": "",
    "stop_timezone": "",
    "wheelchair_boarding": ""
  },
  {
    "stop_id": "32834",
    "stop_code": "150311",
    "stop_name": "Bahiratwadi",
    "stop_desc": "",
    "stop_lat": "18.45772",
    "stop_lon": "73.96362",
    "zone_id": "",
    "stop_url": "",
    "location_type": "",
    "parent_station": "",
    "stop_timezone": "",
    "wheelchair_boarding": ""
  },
  {
    "stop_id": "32835",
    "stop_code": "151021",
    "stop_name": "Divegaon",
    "stop_desc": "",
    "stop_lat": "18.38319",
    "stop_lon": "74.01554",
    "zone_id": "",
    "stop_url": "",
    "location_type": "",
    "parent_station": "",
    "stop_timezone": "",
    "wheelchair_boarding": ""
  },
  {
    "stop_id": "32837",
    "stop_code": "152447",
    "stop_name": "Loni Station",
    "stop_desc": "",
    "stop_lat": "18.48916",
    "stop_lon": "74.02167",
    "zone_id": "",
    "stop_url": "",
    "location_type": "",
    "parent_station": "",
    "stop_timezone": "",
    "wheelchair_boarding": ""
  },
  {
    "stop_id": "32838",
    "stop_code": "154517",
    "stop_name": "Talab Company",
    "stop_desc": "",
    "stop_lat": "18.46171",
    "stop_lon": "73.89032",
    "zone_id": "",
    "stop_url": "",
    "location_type": "",
    "parent_station": "",
    "stop_timezone": "",
    "wheelchair_boarding": ""
  },
  {
    "stop_id": "32839",
    "stop_code": "154554",
    "stop_name": "Tangde Bandhumala",
    "stop_desc": "",
    "stop_lat": "18.49914",
    "stop_lon": "73.73782",
    "zone_id": "",
    "stop_url": "",
    "location_type": "",
    "parent_station": "",
    "stop_timezone": "",
    "wheelchair_boarding": ""
  },
  {
    "stop_id": "32840",
    "stop_code": "152827",
    "stop_name": "MM School",
    "stop_desc": "",
    "stop_lat": "18.61493",
    "stop_lon": "73.78553",
    "zone_id": "",
    "stop_url": "",
    "location_type": "",
    "parent_station": "",
    "stop_timezone": "",
    "wheelchair_boarding": ""
  },
  {
    "stop_id": "32841",
    "stop_code": "154147",
    "stop_name": "Shindenagar Mharunji",
    "stop_desc": "",
    "stop_lat": "18.60506",
    "stop_lon": "73.72686",
    "zone_id": "",
    "stop_url": "",
    "location_type": "",
    "parent_station": "",
    "stop_timezone": "",
    "wheelchair_boarding": ""
  },
  {
    "stop_id": "32845",
    "stop_code": "150052",
    "stop_name": "Agam Mandir",
    "stop_desc": "",
    "stop_lat": "18.44675",
    "stop_lon": "73.85389",
    "zone_id": "",
    "stop_url": "",
    "location_type": "",
    "parent_station": "",
    "stop_timezone": "",
    "wheelchair_boarding": ""
  },
  {
    "stop_id": "32849",
    "stop_code": "150196",
    "stop_name": "Annadhanya Godam",
    "stop_desc": "",
    "stop_lat": "18.53309",
    "stop_lon": "73.8893",
    "zone_id": "",
    "stop_url": "",
    "location_type": "",
    "parent_station": "",
    "stop_timezone": "",
    "wheelchair_boarding": ""
  },
  {
    "stop_id": "32853",
    "stop_code": "153901",
    "stop_name": "Samarth Vidyalay",
    "stop_desc": "",
    "stop_lat": "18.7327",
    "stop_lon": "73.66366",
    "zone_id": "",
    "stop_url": "",
    "location_type": "",
    "parent_station": "",
    "stop_timezone": "",
    "wheelchair_boarding": ""
  },
  {
    "stop_id": "32854",
    "stop_code": "150959",
    "stop_name": "Devi Indrayani Society",
    "stop_desc": "",
    "stop_lat": "18.70503",
    "stop_lon": "73.78299",
    "zone_id": "",
    "stop_url": "",
    "location_type": "",
    "parent_station": "",
    "stop_timezone": "",
    "wheelchair_boarding": ""
  },
  {
    "stop_id": "32857",
    "stop_code": "151594",
    "stop_name": "Homegaurd",
    "stop_desc": "",
    "stop_lat": "18.55585",
    "stop_lon": "73.87481",
    "zone_id": "",
    "stop_url": "",
    "location_type": "",
    "parent_station": "",
    "stop_timezone": "",
    "wheelchair_boarding": ""
  },
  {
    "stop_id": "32858",
    "stop_code": "154348",
    "stop_name": "Someshwarwadi",
    "stop_desc": "",
    "stop_lat": "18.54675",
    "stop_lon": "73.79931",
    "zone_id": "",
    "stop_url": "",
    "location_type": "",
    "parent_station": "",
    "stop_timezone": "",
    "wheelchair_boarding": ""
  },
  {
    "stop_id": "32859",
    "stop_code": "153392",
    "stop_name": "Pirangut",
    "stop_desc": "",
    "stop_lat": "18.51035",
    "stop_lon": "73.68921",
    "zone_id": "",
    "stop_url": "",
    "location_type": "",
    "parent_station": "",
    "stop_timezone": "",
    "wheelchair_boarding": ""
  },
  {
    "stop_id": "32860",
    "stop_code": "153428",
    "stop_name": "Poultry Farm Agalambe",
    "stop_desc": "",
    "stop_lat": "18.42455",
    "stop_lon": "73.72457",
    "zone_id": "",
    "stop_url": "",
    "location_type": "",
    "parent_station": "",
    "stop_timezone": "",
    "wheelchair_boarding": ""
  },
  {
    "stop_id": "32861",
    "stop_code": "151313",
    "stop_name": "Gaymukh",
    "stop_desc": "",
    "stop_lat": "18.44897",
    "stop_lon": "73.83863",
    "zone_id": "",
    "stop_url": "",
    "location_type": "",
    "parent_station": "",
    "stop_timezone": "",
    "wheelchair_boarding": ""
  },
  {
    "stop_id": "32864",
    "stop_code": "154382",
    "stop_name": "Spicer India Company",
    "stop_desc": "",
    "stop_lat": "18.72269",
    "stop_lon": "73.85208",
    "zone_id": "",
    "stop_url": "",
    "location_type": "",
    "parent_station": "",
    "stop_timezone": "",
    "wheelchair_boarding": ""
  },
  {
    "stop_id": "32866",
    "stop_code": "150889",
    "stop_name": "Dattawadi",
    "stop_desc": "",
    "stop_lat": "18.50099",
    "stop_lon": "73.83916",
    "zone_id": "",
    "stop_url": "",
    "location_type": "",
    "parent_station": "",
    "stop_timezone": "",
    "wheelchair_boarding": ""
  },
  {
    "stop_id": "32868",
    "stop_code": "154661",
    "stop_name": "Trinity College",
    "stop_desc": "",
    "stop_lat": "18.42408",
    "stop_lon": "73.90201",
    "zone_id": "",
    "stop_url": "",
    "location_type": "",
    "parent_station": "",
    "stop_timezone": "",
    "wheelchair_boarding": ""
  },
  {
    "stop_id": "32869",
    "stop_code": "154181",
    "stop_name": "Shitolemala",
    "stop_desc": "",
    "stop_lat": "18.60092",
    "stop_lon": "74.15418",
    "zone_id": "",
    "stop_url": "",
    "location_type": "",
    "parent_station": "",
    "stop_timezone": "",
    "wheelchair_boarding": ""
  },
  {
    "stop_id": "32870",
    "stop_code": "152652",
    "stop_name": "Manoharnagar",
    "stop_desc": "",
    "stop_lat": "18.7347",
    "stop_lon": "73.68948",
    "zone_id": "",
    "stop_url": "",
    "location_type": "",
    "parent_station": "",
    "stop_timezone": "",
    "wheelchair_boarding": ""
  },
  {
    "stop_id": "32871",
    "stop_code": "153400",
    "stop_name": "PL Deshpande Udyan",
    "stop_desc": "",
    "stop_lat": "18.49334",
    "stop_lon": "73.83522",
    "zone_id": "",
    "stop_url": "",
    "location_type": "",
    "parent_station": "",
    "stop_timezone": "",
    "wheelchair_boarding": ""
  },
  {
    "stop_id": "32873",
    "stop_code": "151891",
    "stop_name": "Kalamkarvasti",
    "stop_desc": "",
    "stop_lat": "18.5643",
    "stop_lon": "73.7759",
    "zone_id": "",
    "stop_url": "",
    "location_type": "",
    "parent_station": "",
    "stop_timezone": "",
    "wheelchair_boarding": ""
  },
  {
    "stop_id": "32874",
    "stop_code": "150085",
    "stop_name": "Akole Bus Stop",
    "stop_desc": "",
    "stop_lat": "18.52902",
    "stop_lon": "73.57206",
    "zone_id": "",
    "stop_url": "",
    "location_type": "",
    "parent_station": "",
    "stop_timezone": "",
    "wheelchair_boarding": ""
  },
  {
    "stop_id": "32875",
    "stop_code": "150143",
    "stop_name": "Ambegaon Pathar Corner",
    "stop_desc": "",
    "stop_lat": "18.45959",
    "stop_lon": "73.84592",
    "zone_id": "",
    "stop_url": "",
    "location_type": "",
    "parent_station": "",
    "stop_timezone": "",
    "wheelchair_boarding": ""
  },
  {
    "stop_id": "32877",
    "stop_code": "152264",
    "stop_name": "Krushi Utpanna Bazar Samiti",
    "stop_desc": "",
    "stop_lat": "18.73558",
    "stop_lon": "73.96011",
    "zone_id": "",
    "stop_url": "",
    "location_type": "",
    "parent_station": "",
    "stop_timezone": "",
    "wheelchair_boarding": ""
  },
  {
    "stop_id": "32878",
    "stop_code": "153416",
    "stop_name": "Pooja Hospital",
    "stop_desc": "",
    "stop_lat": "18.58988",
    "stop_lon": "73.81953",
    "zone_id": "",
    "stop_url": "",
    "location_type": "",
    "parent_station": "",
    "stop_timezone": "",
    "wheelchair_boarding": ""
  },
  {
    "stop_id": "32879",
    "stop_code": "153943",
    "stop_name": "Sangvi",
    "stop_desc": "",
    "stop_lat": "18.57596",
    "stop_lon": "73.82075",
    "zone_id": "",
    "stop_url": "",
    "location_type": "",
    "parent_station": "",
    "stop_timezone": "",
    "wheelchair_boarding": ""
  },
  {
    "stop_id": "32881",
    "stop_code": "153505",
    "stop_name": "Pravin Mehendi",
    "stop_desc": "",
    "stop_lat": "18.45044",
    "stop_lon": "73.90039",
    "zone_id": "",
    "stop_url": "",
    "location_type": "",
    "parent_station": "",
    "stop_timezone": "",
    "wheelchair_boarding": ""
  },
  {
    "stop_id": "32882",
    "stop_code": "153666",
    "stop_name": "Rajmudra Society",
    "stop_desc": "",
    "stop_lat": "18.46217",
    "stop_lon": "73.85285",
    "zone_id": "",
    "stop_url": "",
    "location_type": "",
    "parent_station": "",
    "stop_timezone": "",
    "wheelchair_boarding": ""
  },
  {
    "stop_id": "32883",
    "stop_code": "151239",
    "stop_name": "Ganesh Park",
    "stop_desc": "",
    "stop_lat": "18.47578",
    "stop_lon": "73.8229",
    "zone_id": "",
    "stop_url": "",
    "location_type": "",
    "parent_station": "",
    "stop_timezone": "",
    "wheelchair_boarding": ""
  },
  {
    "stop_id": "32884",
    "stop_code": "151390",
    "stop_name": "Gokhalenagar Shala",
    "stop_desc": "",
    "stop_lat": "18.52645",
    "stop_lon": "73.82695",
    "zone_id": "",
    "stop_url": "",
    "location_type": "",
    "parent_station": "",
    "stop_timezone": "",
    "wheelchair_boarding": ""
  },
  {
    "stop_id": "32885",
    "stop_code": "152394",
    "stop_name": "Landewadi",
    "stop_desc": "",
    "stop_lat": "18.61962",
    "stop_lon": "73.84197",
    "zone_id": "",
    "stop_url": "",
    "location_type": "",
    "parent_station": "",
    "stop_timezone": "",
    "wheelchair_boarding": ""
  },
  {
    "stop_id": "32887",
    "stop_code": "152395",
    "stop_name": "Landgemala",
    "stop_desc": "",
    "stop_lat": "18.33996",
    "stop_lon": "73.84262",
    "zone_id": "",
    "stop_url": "",
    "location_type": "",
    "parent_station": "",
    "stop_timezone": "",
    "wheelchair_boarding": ""
  },
  {
    "stop_id": "32891",
    "stop_code": "152752",
    "stop_name": "Methodist Church",
    "stop_desc": "",
    "stop_lat": "18.55821",
    "stop_lon": "73.85451",
    "zone_id": "",
    "stop_url": "",
    "location_type": "",
    "parent_station": "",
    "stop_timezone": "",
    "wheelchair_boarding": ""
  },
  {
    "stop_id": "32893",
    "stop_code": "152698",
    "stop_name": "Matalwadi Khanapur",
    "stop_desc": "",
    "stop_lat": "18.40354",
    "stop_lon": "73.7427",
    "zone_id": "",
    "stop_url": "",
    "location_type": "",
    "parent_station": "",
    "stop_timezone": "",
    "wheelchair_boarding": ""
  },
  {
    "stop_id": "32894",
    "stop_code": "151973",
    "stop_name": "Karachi Chowk",
    "stop_desc": "",
    "stop_lat": "18.62122",
    "stop_lon": "73.80159",
    "zone_id": "",
    "stop_url": "",
    "location_type": "",
    "parent_station": "",
    "stop_timezone": "",
    "wheelchair_boarding": ""
  },
  {
    "stop_id": "32896",
    "stop_code": "151586",
    "stop_name": "Holkar Pul Corner",
    "stop_desc": "",
    "stop_lat": "18.55294",
    "stop_lon": "73.86433",
    "zone_id": "",
    "stop_url": "",
    "location_type": "",
    "parent_station": "",
    "stop_timezone": "",
    "wheelchair_boarding": ""
  },
  {
    "stop_id": "32898",
    "stop_code": "152164",
    "stop_name": "Kharadi Bypass",
    "stop_desc": "",
    "stop_lat": "18.56217",
    "stop_lon": "73.93842",
    "zone_id": "",
    "stop_url": "",
    "location_type": "",
    "parent_station": "",
    "stop_timezone": "",
    "wheelchair_boarding": ""
  },
  {
    "stop_id": "32902",
    "stop_code": "152802",
    "stop_name": "Mile Dagad Kramank 23 Nagar Road",
    "stop_desc": "",
    "stop_lat": "18.63834",
    "stop_lon": "74.04739",
    "zone_id": "",
    "stop_url": "",
    "location_type": "",
    "parent_station": "",
    "stop_timezone": "",
    "wheelchair_boarding": ""
  },
  {
    "stop_id": "32903",
    "stop_code": "153088",
    "stop_name": "NIBM Road",
    "stop_desc": "",
    "stop_lat": "18.47687",
    "stop_lon": "73.89622",
    "zone_id": "",
    "stop_url": "",
    "location_type": "",
    "parent_station": "",
    "stop_timezone": "",
    "wheelchair_boarding": ""
  },
  {
    "stop_id": "32905",
    "stop_code": "151573",
    "stop_name": "Hinjawadi Petrol Pump",
    "stop_desc": "",
    "stop_lat": "18.59333",
    "stop_lon": "73.73604",
    "zone_id": "",
    "stop_url": "",
    "location_type": "",
    "parent_station": "",
    "stop_timezone": "",
    "wheelchair_boarding": ""
  },
  {
    "stop_id": "32907",
    "stop_code": "150148",
    "stop_name": "Ambegaon Phata Lavasa Road",
    "stop_desc": "",
    "stop_lat": "18.48231",
    "stop_lon": "73.6631",
    "zone_id": "",
    "stop_url": "",
    "location_type": "",
    "parent_station": "",
    "stop_timezone": "",
    "wheelchair_boarding": ""
  },
  {
    "stop_id": "32909",
    "stop_code": "152199",
    "stop_name": "Kiwalegaon",
    "stop_desc": "",
    "stop_lat": "18.65769",
    "stop_lon": "73.72222",
    "zone_id": "",
    "stop_url": "",
    "location_type": "",
    "parent_station": "",
    "stop_timezone": "",
    "wheelchair_boarding": ""
  },
  {
    "stop_id": "32910",
    "stop_code": "154566",
    "stop_name": "Tapkirnagar Rahatni",
    "stop_desc": "",
    "stop_lat": "18.61209",
    "stop_lon": "73.78433",
    "zone_id": "",
    "stop_url": "",
    "location_type": "",
    "parent_station": "",
    "stop_timezone": "",
    "wheelchair_boarding": ""
  },
  {
    "stop_id": "32911",
    "stop_code": "153430",
    "stop_name": "Poultry Farm Anisha",
    "stop_desc": "",
    "stop_lat": "18.40457",
    "stop_lon": "73.68237",
    "zone_id": "",
    "stop_url": "",
    "location_type": "",
    "parent_station": "",
    "stop_timezone": "",
    "wheelchair_boarding": ""
  },
  {
    "stop_id": "32912",
    "stop_code": "152830",
    "stop_name": "Model Colony",
    "stop_desc": "",
    "stop_lat": "18.52936",
    "stop_lon": "73.83847",
    "zone_id": "",
    "stop_url": "",
    "location_type": "",
    "parent_station": "",
    "stop_timezone": "",
    "wheelchair_boarding": ""
  },
  {
    "stop_id": "32913",
    "stop_code": "151634",
    "stop_name": "Inam Aali",
    "stop_desc": "",
    "stop_lat": "18.63206",
    "stop_lon": "73.67922",
    "zone_id": "",
    "stop_url": "",
    "location_type": "",
    "parent_station": "",
    "stop_timezone": "",
    "wheelchair_boarding": ""
  },
  {
    "stop_id": "32914",
    "stop_code": "152632",
    "stop_name": "Mangdenagar",
    "stop_desc": "",
    "stop_lat": "18.46123",
    "stop_lon": "73.84188",
    "zone_id": "",
    "stop_url": "",
    "location_type": "",
    "parent_station": "",
    "stop_timezone": "",
    "wheelchair_boarding": ""
  },
  {
    "stop_id": "32917",
    "stop_code": "154261",
    "stop_name": "Shiwarkar Garden",
    "stop_desc": "",
    "stop_lat": "18.4986",
    "stop_lon": "73.90048",
    "zone_id": "",
    "stop_url": "",
    "location_type": "",
    "parent_station": "",
    "stop_timezone": "",
    "wheelchair_boarding": ""
  },
  {
    "stop_id": "32918",
    "stop_code": "153460",
    "stop_name": "Power House Fursungi",
    "stop_desc": "",
    "stop_lat": "18.47667",
    "stop_lon": "73.95716",
    "zone_id": "",
    "stop_url": "",
    "location_type": "",
    "parent_station": "",
    "stop_timezone": "",
    "wheelchair_boarding": ""
  },
  {
    "stop_id": "32919",
    "stop_code": "154149",
    "stop_name": "Shindevasti Burkegaon",
    "stop_desc": "",
    "stop_lat": "18.61733",
    "stop_lon": "74.11568",
    "zone_id": "",
    "stop_url": "",
    "location_type": "",
    "parent_station": "",
    "stop_timezone": "",
    "wheelchair_boarding": ""
  },
  {
    "stop_id": "32921",
    "stop_code": "151655",
    "stop_name": "Indraprabha",
    "stop_desc": "",
    "stop_lat": "18.66593",
    "stop_lon": "73.72848",
    "zone_id": "",
    "stop_url": "",
    "location_type": "",
    "parent_station": "",
    "stop_timezone": "",
    "wheelchair_boarding": ""
  },
  {
    "stop_id": "32922",
    "stop_code": "151033",
    "stop_name": "Dnyaneshwar Society",
    "stop_desc": "",
    "stop_lat": "18.48304",
    "stop_lon": "73.84996",
    "zone_id": "",
    "stop_url": "",
    "location_type": "",
    "parent_station": "",
    "stop_timezone": "",
    "wheelchair_boarding": ""
  },
  {
    "stop_id": "32923",
    "stop_code": "153867",
    "stop_name": "Sai Palace",
    "stop_desc": "",
    "stop_lat": "18.45563",
    "stop_lon": "73.87137",
    "zone_id": "",
    "stop_url": "",
    "location_type": "",
    "parent_station": "",
    "stop_timezone": "",
    "wheelchair_boarding": ""
  },
  {
    "stop_id": "32924",
    "stop_code": "154707",
    "stop_name": "Vadacha Stop",
    "stop_desc": "",
    "stop_lat": "18.4915",
    "stop_lon": "73.81518",
    "zone_id": "",
    "stop_url": "",
    "location_type": "",
    "parent_station": "",
    "stop_timezone": "",
    "wheelchair_boarding": ""
  },
  {
    "stop_id": "32928",
    "stop_code": "154169",
    "stop_name": "Shiroli",
    "stop_desc": "",
    "stop_lat": "18.82867",
    "stop_lon": "73.87685",
    "zone_id": "",
    "stop_url": "",
    "location_type": "",
    "parent_station": "",
    "stop_timezone": "",
    "wheelchair_boarding": ""
  },
  {
    "stop_id": "32929",
    "stop_code": "150898",
    "stop_name": "Daulat Garden",
    "stop_desc": "",
    "stop_lat": "18.50325",
    "stop_lon": "73.76091",
    "zone_id": "",
    "stop_url": "",
    "location_type": "",
    "parent_station": "",
    "stop_timezone": "",
    "wheelchair_boarding": ""
  },
  {
    "stop_id": "32930",
    "stop_code": "150421",
    "stop_name": "Bhagvatinagar",
    "stop_desc": "",
    "stop_lat": "18.54231",
    "stop_lon": "73.77708",
    "zone_id": "",
    "stop_url": "",
    "location_type": "",
    "parent_station": "",
    "stop_timezone": "",
    "wheelchair_boarding": ""
  },
  {
    "stop_id": "32931",
    "stop_code": "153142",
    "stop_name": "Osade Phata",
    "stop_desc": "",
    "stop_lat": "18.38954",
    "stop_lon": "73.68879",
    "zone_id": "",
    "stop_url": "",
    "location_type": "",
    "parent_station": "",
    "stop_timezone": "",
    "wheelchair_boarding": ""
  },
  {
    "stop_id": "32932",
    "stop_code": "153638",
    "stop_name": "Rajaram Pul Corner",
    "stop_desc": "",
    "stop_lat": "18.48895",
    "stop_lon": "73.82703",
    "zone_id": "",
    "stop_url": "",
    "location_type": "",
    "parent_station": "",
    "stop_timezone": "",
    "wheelchair_boarding": ""
  },
  {
    "stop_id": "32936",
    "stop_code": "151519",
    "stop_name": "Handewadigaon",
    "stop_desc": "",
    "stop_lat": "18.45311",
    "stop_lon": "73.93271",
    "zone_id": "",
    "stop_url": "",
    "location_type": "",
    "parent_station": "",
    "stop_timezone": "",
    "wheelchair_boarding": ""
  },
  {
    "stop_id": "32937",
    "stop_code": "153905",
    "stop_name": "Sambhaji Chowk",
    "stop_desc": "",
    "stop_lat": "18.64928",
    "stop_lon": "73.77004",
    "zone_id": "",
    "stop_url": "",
    "location_type": "",
    "parent_station": "",
    "stop_timezone": "",
    "wheelchair_boarding": ""
  },
  {
    "stop_id": "32938",
    "stop_code": "151605",
    "stop_name": "HRA Reliance",
    "stop_desc": "",
    "stop_lat": "18.52803",
    "stop_lon": "73.77757",
    "zone_id": "",
    "stop_url": "",
    "location_type": "",
    "parent_station": "",
    "stop_timezone": "",
    "wheelchair_boarding": ""
  },
  {
    "stop_id": "32939",
    "stop_code": "150537",
    "stop_name": "Bhosalevasti Uruli Kanchan",
    "stop_desc": "",
    "stop_lat": "18.48779",
    "stop_lon": "74.11622",
    "zone_id": "",
    "stop_url": "",
    "location_type": "",
    "parent_station": "",
    "stop_timezone": "",
    "wheelchair_boarding": ""
  },
  {
    "stop_id": "32940",
    "stop_code": "151462",
    "stop_name": "Gujarwadi",
    "stop_desc": "",
    "stop_lat": "18.42671",
    "stop_lon": "73.87555",
    "zone_id": "",
    "stop_url": "",
    "location_type": "",
    "parent_station": "",
    "stop_timezone": "",
    "wheelchair_boarding": ""
  },
  {
    "stop_id": "32942",
    "stop_code": "153816",
    "stop_name": "Sadhana Vidyalay",
    "stop_desc": "",
    "stop_lat": "18.50567",
    "stop_lon": "73.93849",
    "zone_id": "",
    "stop_url": "",
    "location_type": "",
    "parent_station": "",
    "stop_timezone": "",
    "wheelchair_boarding": ""
  },
  {
    "stop_id": "32943",
    "stop_code": "153064",
    "stop_name": "Nehrunagar Corner",
    "stop_desc": "",
    "stop_lat": "18.63035",
    "stop_lon": "73.81956",
    "zone_id": "",
    "stop_url": "",
    "location_type": "",
    "parent_station": "",
    "stop_timezone": "",
    "wheelchair_boarding": ""
  },
  {
    "stop_id": "32944",
    "stop_code": "152125",
    "stop_name": "Khadakwasla Dharan Stores",
    "stop_desc": "",
    "stop_lat": "18.45008",
    "stop_lon": "73.76367",
    "zone_id": "",
    "stop_url": "",
    "location_type": "",
    "parent_station": "",
    "stop_timezone": "",
    "wheelchair_boarding": ""
  },
  {
    "stop_id": "32945",
    "stop_code": "152765",
    "stop_name": "Mhalunge Phata Chakan",
    "stop_desc": "",
    "stop_lat": "18.755",
    "stop_lon": "73.80854",
    "zone_id": "",
    "stop_url": "",
    "location_type": "",
    "parent_station": "",
    "stop_timezone": "",
    "wheelchair_boarding": ""
  },
  {
    "stop_id": "32946",
    "stop_code": "150456",
    "stop_name": "Bhandari Company",
    "stop_desc": "",
    "stop_lat": "18.83868",
    "stop_lon": "73.88049",
    "zone_id": "",
    "stop_url": "",
    "location_type": "",
    "parent_station": "",
    "stop_timezone": "",
    "wheelchair_boarding": ""
  },
  {
    "stop_id": "32948",
    "stop_code": "150841",
    "stop_name": "Dandekar Pul",
    "stop_desc": "",
    "stop_lat": "18.50112",
    "stop_lon": "73.84653",
    "zone_id": "",
    "stop_url": "",
    "location_type": "",
    "parent_station": "",
    "stop_timezone": "",
    "wheelchair_boarding": ""
  },
  {
    "stop_id": "32949",
    "stop_code": "150780",
    "stop_name": "CNG Pump Corner",
    "stop_desc": "",
    "stop_lat": "18.66434",
    "stop_lon": "73.82448",
    "zone_id": "",
    "stop_url": "",
    "location_type": "",
    "parent_station": "",
    "stop_timezone": "",
    "wheelchair_boarding": ""
  },
  {
    "stop_id": "32952",
    "stop_code": "152370",
    "stop_name": "Lakshminagar Corner",
    "stop_desc": "",
    "stop_lat": "18.49164",
    "stop_lon": "73.84987",
    "zone_id": "",
    "stop_url": "",
    "location_type": "",
    "parent_station": "",
    "stop_timezone": "",
    "wheelchair_boarding": ""
  },
  {
    "stop_id": "32953",
    "stop_code": "155011",
    "stop_name": "Yadavvasti Prayagdham",
    "stop_desc": "",
    "stop_lat": "18.49589",
    "stop_lon": "74.11937",
    "zone_id": "",
    "stop_url": "",
    "location_type": "",
    "parent_station": "",
    "stop_timezone": "",
    "wheelchair_boarding": ""
  },
  {
    "stop_id": "32954",
    "stop_code": "150386",
    "stop_name": "Bankarvasti",
    "stop_desc": "",
    "stop_lat": "18.67124",
    "stop_lon": "73.84833",
    "zone_id": "",
    "stop_url": "",
    "location_type": "",
    "parent_station": "",
    "stop_timezone": "",
    "wheelchair_boarding": ""
  },
  {
    "stop_id": "32955",
    "stop_code": "150169",
    "stop_name": "Anand Ashram",
    "stop_desc": "",
    "stop_lat": "18.682",
    "stop_lon": "74.04225",
    "zone_id": "",
    "stop_url": "",
    "location_type": "",
    "parent_station": "",
    "stop_timezone": "",
    "wheelchair_boarding": ""
  },
  {
    "stop_id": "32956",
    "stop_code": "150184",
    "stop_name": "Anand Nagar Sinhagad Road",
    "stop_desc": "",
    "stop_lat": "18.47882",
    "stop_lon": "73.82445",
    "zone_id": "",
    "stop_url": "",
    "location_type": "",
    "parent_station": "",
    "stop_timezone": "",
    "wheelchair_boarding": ""
  },
  {
    "stop_id": "32957",
    "stop_code": "151036",
    "stop_name": "Donajegaon Phata",
    "stop_desc": "",
    "stop_lat": "18.41227",
    "stop_lon": "73.76665",
    "zone_id": "",
    "stop_url": "",
    "location_type": "",
    "parent_station": "",
    "stop_timezone": "",
    "wheelchair_boarding": ""
  },
  {
    "stop_id": "32959",
    "stop_code": "150617",
    "stop_name": "BU Bhandari Showroom",
    "stop_desc": "",
    "stop_lat": "18.60178",
    "stop_lon": "73.75375",
    "zone_id": "",
    "stop_url": "",
    "location_type": "",
    "parent_station": "",
    "stop_timezone": "",
    "wheelchair_boarding": ""
  },
  {
    "stop_id": "32960",
    "stop_code": "152933",
    "stop_name": "Munjabavasti",
    "stop_desc": "",
    "stop_lat": "18.589",
    "stop_lon": "73.89215",
    "zone_id": "",
    "stop_url": "",
    "location_type": "",
    "parent_station": "",
    "stop_timezone": "",
    "wheelchair_boarding": ""
  },
  {
    "stop_id": "32961",
    "stop_code": "152838",
    "stop_name": "Mohammadwadigaon",
    "stop_desc": "",
    "stop_lat": "18.46988",
    "stop_lon": "73.92146",
    "zone_id": "",
    "stop_url": "",
    "location_type": "",
    "parent_station": "",
    "stop_timezone": "",
    "wheelchair_boarding": ""
  },
  {
    "stop_id": "32963",
    "stop_code": "152839",
    "stop_name": "Mohammadwadi Shala",
    "stop_desc": "",
    "stop_lat": "18.46821",
    "stop_lon": "73.92015",
    "zone_id": "",
    "stop_url": "",
    "location_type": "",
    "parent_station": "",
    "stop_timezone": "",
    "wheelchair_boarding": ""
  },
  {
    "stop_id": "32964",
    "stop_code": "152172",
    "stop_name": "Khed Shivapur",
    "stop_desc": "",
    "stop_lat": "18.34701",
    "stop_lon": "73.84955",
    "zone_id": "",
    "stop_url": "",
    "location_type": "",
    "parent_station": "",
    "stop_timezone": "",
    "wheelchair_boarding": ""
  },
  {
    "stop_id": "32965",
    "stop_code": "152635",
    "stop_name": "Mangdewadi Phata",
    "stop_desc": "",
    "stop_lat": "18.43463",
    "stop_lon": "73.85981",
    "zone_id": "",
    "stop_url": "",
    "location_type": "",
    "parent_station": "",
    "stop_timezone": "",
    "wheelchair_boarding": ""
  },
  {
    "stop_id": "32966",
    "stop_code": "155005",
    "stop_name": "Wireless Office",
    "stop_desc": "",
    "stop_lat": "18.54173",
    "stop_lon": "73.82479",
    "zone_id": "",
    "stop_url": "",
    "location_type": "",
    "parent_station": "",
    "stop_timezone": "",
    "wheelchair_boarding": ""
  },
  {
    "stop_id": "32968",
    "stop_code": "151946",
    "stop_name": "Kalyani Forge",
    "stop_desc": "",
    "stop_lat": "18.71735",
    "stop_lon": "73.84932",
    "zone_id": "",
    "stop_url": "",
    "location_type": "",
    "parent_station": "",
    "stop_timezone": "",
    "wheelchair_boarding": ""
  },
  {
    "stop_id": "32970",
    "stop_code": "154645",
    "stop_name": "Toll Naka",
    "stop_desc": "",
    "stop_lat": "18.7392",
    "stop_lon": "73.7481",
    "zone_id": "",
    "stop_url": "",
    "location_type": "",
    "parent_station": "",
    "stop_timezone": "",
    "wheelchair_boarding": ""
  },
  {
    "stop_id": "32971",
    "stop_code": "151635",
    "stop_name": "Inamdarvasti Rahutwadi",
    "stop_desc": "",
    "stop_lat": "18.51995",
    "stop_lon": "73.69618",
    "zone_id": "",
    "stop_url": "",
    "location_type": "",
    "parent_station": "",
    "stop_timezone": "",
    "wheelchair_boarding": ""
  },
  {
    "stop_id": "32972",
    "stop_code": "154856",
    "stop_name": "Vipraj Company",
    "stop_desc": "",
    "stop_lat": "18.7168",
    "stop_lon": "73.67803",
    "zone_id": "",
    "stop_url": "",
    "location_type": "",
    "parent_station": "",
    "stop_timezone": "",
    "wheelchair_boarding": ""
  },
  {
    "stop_id": "32973",
    "stop_code": "153959",
    "stop_name": "Santkrupa Fabrication",
    "stop_desc": "",
    "stop_lat": "18.60692",
    "stop_lon": "73.72363",
    "zone_id": "",
    "stop_url": "",
    "location_type": "",
    "parent_station": "",
    "stop_timezone": "",
    "wheelchair_boarding": ""
  },
  {
    "stop_id": "32974",
    "stop_code": "151270",
    "stop_name": "Ganpati Mandir Sambhajinagar",
    "stop_desc": "",
    "stop_lat": "18.66326",
    "stop_lon": "73.79832",
    "zone_id": "",
    "stop_url": "",
    "location_type": "",
    "parent_station": "",
    "stop_timezone": "",
    "wheelchair_boarding": ""
  },
  {
    "stop_id": "32975",
    "stop_code": "153888",
    "stop_name": "Sakal Office Vadaki",
    "stop_desc": "",
    "stop_lat": "18.42513",
    "stop_lon": "73.98222",
    "zone_id": "",
    "stop_url": "",
    "location_type": "",
    "parent_station": "",
    "stop_timezone": "",
    "wheelchair_boarding": ""
  },
  {
    "stop_id": "32981",
    "stop_code": "153898",
    "stop_name": "Samadhi Mandir",
    "stop_desc": "",
    "stop_lat": "18.56517",
    "stop_lon": "73.77328",
    "zone_id": "",
    "stop_url": "",
    "location_type": "",
    "parent_station": "",
    "stop_timezone": "",
    "wheelchair_boarding": ""
  },
  {
    "stop_id": "32983",
    "stop_code": "153549",
    "stop_name": "Pune Station",
    "stop_desc": "",
    "stop_lat": "18.52739",
    "stop_lon": "73.87307",
    "zone_id": "",
    "stop_url": "",
    "location_type": "",
    "parent_station": "",
    "stop_timezone": "",
    "wheelchair_boarding": ""
  },
  {
    "stop_id": "32984",
    "stop_code": "152026",
    "stop_name": "Kasba Peth Police Chowky",
    "stop_desc": "",
    "stop_lat": "18.51978",
    "stop_lon": "73.8562",
    "zone_id": "",
    "stop_url": "",
    "location_type": "",
    "parent_station": "",
    "stop_timezone": "",
    "wheelchair_boarding": ""
  },
  {
    "stop_id": "32985",
    "stop_code": "152201",
    "stop_name": "Kodhanpur Phata",
    "stop_desc": "",
    "stop_lat": "18.34883",
    "stop_lon": "73.8516",
    "zone_id": "",
    "stop_url": "",
    "location_type": "",
    "parent_station": "",
    "stop_timezone": "",
    "wheelchair_boarding": ""
  },
  {
    "stop_id": "32986",
    "stop_code": "154795",
    "stop_name": "Varvegaon",
    "stop_desc": "",
    "stop_lat": "18.30393",
    "stop_lon": "73.87019",
    "zone_id": "",
    "stop_url": "",
    "location_type": "",
    "parent_station": "",
    "stop_timezone": "",
    "wheelchair_boarding": ""
  },
  {
    "stop_id": "32987",
    "stop_code": "152899",
    "stop_name": "Mugawade",
    "stop_desc": "",
    "stop_lat": "18.54273",
    "stop_lon": "73.62853",
    "zone_id": "",
    "stop_url": "",
    "location_type": "",
    "parent_station": "",
    "stop_timezone": "",
    "wheelchair_boarding": ""
  },
  {
    "stop_id": "32989",
    "stop_code": "151329",
    "stop_name": "Ghat Utar Valan",
    "stop_desc": "",
    "stop_lat": "18.40085",
    "stop_lon": "73.85702",
    "zone_id": "",
    "stop_url": "",
    "location_type": "",
    "parent_station": "",
    "stop_timezone": "",
    "wheelchair_boarding": ""
  },
  {
    "stop_id": "32990",
    "stop_code": "152203",
    "stop_name": "kohima line",
    "stop_desc": "",
    "stop_lat": "18.67349",
    "stop_lon": "73.76413",
    "zone_id": "",
    "stop_url": "",
    "location_type": "",
    "parent_station": "",
    "stop_timezone": "",
    "wheelchair_boarding": ""
  },
  {
    "stop_id": "32991",
    "stop_code": "152348",
    "stop_name": "Labour Office",
    "stop_desc": "",
    "stop_lat": "18.53521",
    "stop_lon": "73.85135",
    "zone_id": "",
    "stop_url": "",
    "location_type": "",
    "parent_station": "",
    "stop_timezone": "",
    "wheelchair_boarding": ""
  },
  {
    "stop_id": "32992",
    "stop_code": "150452",
    "stop_name": "Bham",
    "stop_desc": "",
    "stop_lat": "18.80501",
    "stop_lon": "73.8727",
    "zone_id": "",
    "stop_url": "",
    "location_type": "",
    "parent_station": "",
    "stop_timezone": "",
    "wheelchair_boarding": ""
  },
  {
    "stop_id": "32994",
    "stop_code": "150704",
    "stop_name": "Cheladi Phata",
    "stop_desc": "",
    "stop_lat": "18.26593",
    "stop_lon": "73.88186",
    "zone_id": "",
    "stop_url": "",
    "location_type": "",
    "parent_station": "",
    "stop_timezone": "",
    "wheelchair_boarding": ""
  },
  {
    "stop_id": "32995",
    "stop_code": "154740",
    "stop_name": "Vadgaonmawal Phata",
    "stop_desc": "",
    "stop_lat": "18.7284",
    "stop_lon": "73.65482",
    "zone_id": "",
    "stop_url": "",
    "location_type": "",
    "parent_station": "",
    "stop_timezone": "",
    "wheelchair_boarding": ""
  },
  {
    "stop_id": "24804",
    "stop_code": "137874",
    "stop_name": "Vitthal Mandir Mhasolkar",
    "stop_desc": "",
    "stop_lat": "18.63325",
    "stop_lon": "73.81236",
    "zone_id": "",
    "stop_url": "",
    "location_type": "",
    "parent_station": "",
    "stop_timezone": "",
    "wheelchair_boarding": ""
  },
  {
    "stop_id": "32996",
    "stop_code": "153681",
    "stop_name": "Rakshevasti",
    "stop_desc": "",
    "stop_lat": "18.57578",
    "stop_lon": "73.70999",
    "zone_id": "",
    "stop_url": "",
    "location_type": "",
    "parent_station": "",
    "stop_timezone": "",
    "wheelchair_boarding": ""
  },
  {
    "stop_id": "32997",
    "stop_code": "154791",
    "stop_name": "Vardade Phata",
    "stop_desc": "",
    "stop_lat": "18.38947",
    "stop_lon": "73.70037",
    "zone_id": "",
    "stop_url": "",
    "location_type": "",
    "parent_station": "",
    "stop_timezone": "",
    "wheelchair_boarding": ""
  },
  {
    "stop_id": "32998",
    "stop_code": "153790",
    "stop_name": "Royal Park",
    "stop_desc": "",
    "stop_lat": "18.49616",
    "stop_lon": "73.83166",
    "zone_id": "",
    "stop_url": "",
    "location_type": "",
    "parent_station": "",
    "stop_timezone": "",
    "wheelchair_boarding": ""
  },
  {
    "stop_id": "32999",
    "stop_code": "150598",
    "stop_name": "Boratevasti Nasik Road",
    "stop_desc": "",
    "stop_lat": "18.66519",
    "stop_lon": "73.84878",
    "zone_id": "",
    "stop_url": "",
    "location_type": "",
    "parent_station": "",
    "stop_timezone": "",
    "wheelchair_boarding": ""
  },
  {
    "stop_id": "33000",
    "stop_code": "150885",
    "stop_name": "Dattanagar Katraj Road",
    "stop_desc": "",
    "stop_lat": "18.44939",
    "stop_lon": "73.84964",
    "zone_id": "",
    "stop_url": "",
    "location_type": "",
    "parent_station": "",
    "stop_timezone": "",
    "wheelchair_boarding": ""
  },
  {
    "stop_id": "33001",
    "stop_code": "154802",
    "stop_name": "Vasantbaug Chowk",
    "stop_desc": "",
    "stop_lat": "18.4808",
    "stop_lon": "73.86168",
    "zone_id": "",
    "stop_url": "",
    "location_type": "",
    "parent_station": "",
    "stop_timezone": "",
    "wheelchair_boarding": ""
  },
  {
    "stop_id": "33002",
    "stop_code": "151872",
    "stop_name": "Kadus Phata",
    "stop_desc": "",
    "stop_lat": "18.84749",
    "stop_lon": "73.88426",
    "zone_id": "",
    "stop_url": "",
    "location_type": "",
    "parent_station": "",
    "stop_timezone": "",
    "wheelchair_boarding": ""
  },
  {
    "stop_id": "33003",
    "stop_code": "153474",
    "stop_name": "Power House Padmawati",
    "stop_desc": "",
    "stop_lat": "18.47681",
    "stop_lon": "73.85097",
    "zone_id": "",
    "stop_url": "",
    "location_type": "",
    "parent_station": "",
    "stop_timezone": "",
    "wheelchair_boarding": ""
  },
  {
    "stop_id": "33004",
    "stop_code": "153141",
    "stop_name": "Osade Phata",
    "stop_desc": "",
    "stop_lat": "18.38953",
    "stop_lon": "73.68883",
    "zone_id": "",
    "stop_url": "",
    "location_type": "",
    "parent_station": "",
    "stop_timezone": "",
    "wheelchair_boarding": ""
  },
  {
    "stop_id": "33006",
    "stop_code": "152099",
    "stop_name": "Kendriya Vidyalay Lohgaon",
    "stop_desc": "",
    "stop_lat": "18.59181",
    "stop_lon": "73.91704",
    "zone_id": "",
    "stop_url": "",
    "location_type": "",
    "parent_station": "",
    "stop_timezone": "",
    "wheelchair_boarding": ""
  },
  {
    "stop_id": "33007",
    "stop_code": "151515",
    "stop_name": "Hadapsargaon",
    "stop_desc": "",
    "stop_lat": "18.50167",
    "stop_lon": "73.93307",
    "zone_id": "",
    "stop_url": "",
    "location_type": "",
    "parent_station": "",
    "stop_timezone": "",
    "wheelchair_boarding": ""
  },
  {
    "stop_id": "33008",
    "stop_code": "151723",
    "stop_name": "Jagdhmba Hotal",
    "stop_desc": "",
    "stop_lat": "18.57737",
    "stop_lon": "73.78758",
    "zone_id": "",
    "stop_url": "",
    "location_type": "",
    "parent_station": "",
    "stop_timezone": "",
    "wheelchair_boarding": ""
  },
  {
    "stop_id": "33010",
    "stop_code": "151651",
    "stop_name": "Indoorance System Chakan Mhalunge",
    "stop_desc": "",
    "stop_lat": "18.74243",
    "stop_lon": "73.80676",
    "zone_id": "",
    "stop_url": "",
    "location_type": "",
    "parent_station": "",
    "stop_timezone": "",
    "wheelchair_boarding": ""
  },
  {
    "stop_id": "33011",
    "stop_code": "152104",
    "stop_name": "Kendriya Vidyalay Yerawada",
    "stop_desc": "",
    "stop_lat": "18.57038",
    "stop_lon": "73.89827",
    "zone_id": "",
    "stop_url": "",
    "location_type": "",
    "parent_station": "",
    "stop_timezone": "",
    "wheelchair_boarding": ""
  },
  {
    "stop_id": "33012",
    "stop_code": "153244",
    "stop_name": "Parvatigaon",
    "stop_desc": "",
    "stop_lat": "18.49744",
    "stop_lon": "73.85098",
    "zone_id": "",
    "stop_url": "",
    "location_type": "",
    "parent_station": "",
    "stop_timezone": "",
    "wheelchair_boarding": ""
  },
  {
    "stop_id": "33013",
    "stop_code": "153538",
    "stop_name": "pumpung Station Medi Point",
    "stop_desc": "",
    "stop_lat": "18.5637",
    "stop_lon": "73.79675",
    "zone_id": "",
    "stop_url": "",
    "location_type": "",
    "parent_station": "",
    "stop_timezone": "",
    "wheelchair_boarding": ""
  },
  {
    "stop_id": "33014",
    "stop_code": "153961",
    "stop_name": "Santnagar",
    "stop_desc": "",
    "stop_lat": "18.64686",
    "stop_lon": "73.84565",
    "zone_id": "",
    "stop_url": "",
    "location_type": "",
    "parent_station": "",
    "stop_timezone": "",
    "wheelchair_boarding": ""
  },
  {
    "stop_id": "33015",
    "stop_code": "154772",
    "stop_name": "Vallabhnagar ST Stand",
    "stop_desc": "",
    "stop_lat": "18.6152",
    "stop_lon": "73.81681",
    "zone_id": "",
    "stop_url": "",
    "location_type": "",
    "parent_station": "",
    "stop_timezone": "",
    "wheelchair_boarding": ""
  },
  {
    "stop_id": "33016",
    "stop_code": "153883",
    "stop_name": "Sai Washing Center",
    "stop_desc": "",
    "stop_lat": "18.6263",
    "stop_lon": "73.68103",
    "zone_id": "",
    "stop_url": "",
    "location_type": "",
    "parent_station": "",
    "stop_timezone": "",
    "wheelchair_boarding": ""
  },
  {
    "stop_id": "33018",
    "stop_code": "151555",
    "stop_name": "Hill Hila",
    "stop_desc": "",
    "stop_lat": "18.4527",
    "stop_lon": "73.88352",
    "zone_id": "",
    "stop_url": "",
    "location_type": "",
    "parent_station": "",
    "stop_timezone": "",
    "wheelchair_boarding": ""
  },
  {
    "stop_id": "33019",
    "stop_code": "150867",
    "stop_name": "Dattamandir Narhe Road",
    "stop_desc": "",
    "stop_lat": "18.45604",
    "stop_lon": "73.81987",
    "zone_id": "",
    "stop_url": "",
    "location_type": "",
    "parent_station": "",
    "stop_timezone": "",
    "wheelchair_boarding": ""
  },
  {
    "stop_id": "33020",
    "stop_code": "151401",
    "stop_name": "Gokulnagar Katraj Kondhwa Road",
    "stop_desc": "",
    "stop_lat": "18.44989",
    "stop_lon": "73.8757",
    "zone_id": "",
    "stop_url": "",
    "location_type": "",
    "parent_station": "",
    "stop_timezone": "",
    "wheelchair_boarding": ""
  },
  {
    "stop_id": "33021",
    "stop_code": "153341",
    "stop_name": "Petrol Pump Dhanora",
    "stop_desc": "",
    "stop_lat": "18.67009",
    "stop_lon": "73.91917",
    "zone_id": "",
    "stop_url": "",
    "location_type": "",
    "parent_station": "",
    "stop_timezone": "",
    "wheelchair_boarding": ""
  },
  {
    "stop_id": "33022",
    "stop_code": "154009",
    "stop_name": "Satavvasti",
    "stop_desc": "",
    "stop_lat": "18.53517",
    "stop_lon": "73.70593",
    "zone_id": "",
    "stop_url": "",
    "location_type": "",
    "parent_station": "",
    "stop_timezone": "",
    "wheelchair_boarding": ""
  },
  {
    "stop_id": "33023",
    "stop_code": "152807",
    "stop_name": "Mile Dagad Kramank 9",
    "stop_desc": "",
    "stop_lat": "18.50704",
    "stop_lon": "73.78536",
    "zone_id": "",
    "stop_url": "",
    "location_type": "",
    "parent_station": "",
    "stop_timezone": "",
    "wheelchair_boarding": ""
  },
  {
    "stop_id": "33024",
    "stop_code": "153965",
    "stop_name": "Santoshi Mata Mandir Alandi",
    "stop_desc": "",
    "stop_lat": "18.67648",
    "stop_lon": "73.90238",
    "zone_id": "",
    "stop_url": "",
    "location_type": "",
    "parent_station": "",
    "stop_timezone": "",
    "wheelchair_boarding": ""
  },
  {
    "stop_id": "33025",
    "stop_code": "153039",
    "stop_name": "NCL Colony",
    "stop_desc": "",
    "stop_lat": "18.53987",
    "stop_lon": "73.81655",
    "zone_id": "",
    "stop_url": "",
    "location_type": "",
    "parent_station": "",
    "stop_timezone": "",
    "wheelchair_boarding": ""
  },
  {
    "stop_id": "33026",
    "stop_code": "151493",
    "stop_name": "Gurukrupa Hospital",
    "stop_desc": "",
    "stop_lat": "18.60304",
    "stop_lon": "73.73096",
    "zone_id": "",
    "stop_url": "",
    "location_type": "",
    "parent_station": "",
    "stop_timezone": "",
    "wheelchair_boarding": ""
  },
  {
    "stop_id": "33027",
    "stop_code": "152930",
    "stop_name": "Mundhwa Shala",
    "stop_desc": "",
    "stop_lat": "18.53419",
    "stop_lon": "73.92866",
    "zone_id": "",
    "stop_url": "",
    "location_type": "",
    "parent_station": "",
    "stop_timezone": "",
    "wheelchair_boarding": ""
  },
  {
    "stop_id": "33028",
    "stop_code": "152220",
    "stop_name": "Kondhwa Bk",
    "stop_desc": "",
    "stop_lat": "18.45419",
    "stop_lon": "73.89066",
    "zone_id": "",
    "stop_url": "",
    "location_type": "",
    "parent_station": "",
    "stop_timezone": "",
    "wheelchair_boarding": ""
  },
  {
    "stop_id": "33029",
    "stop_code": "153531",
    "stop_name": "Pulachiwadi",
    "stop_desc": "",
    "stop_lat": "18.32365",
    "stop_lon": "73.85479",
    "zone_id": "",
    "stop_url": "",
    "location_type": "",
    "parent_station": "",
    "stop_timezone": "",
    "wheelchair_boarding": ""
  },
  {
    "stop_id": "33030",
    "stop_code": "154008",
    "stop_name": "Satavvasti",
    "stop_desc": "",
    "stop_lat": "18.53504",
    "stop_lon": "73.70577",
    "zone_id": "",
    "stop_url": "",
    "location_type": "",
    "parent_station": "",
    "stop_timezone": "",
    "wheelchair_boarding": ""
  },
  {
    "stop_id": "33032",
    "stop_code": "151955",
    "stop_name": "Kamala Nehru Hospital",
    "stop_desc": "",
    "stop_lat": "18.52201",
    "stop_lon": "73.86132",
    "zone_id": "",
    "stop_url": "",
    "location_type": "",
    "parent_station": "",
    "stop_timezone": "",
    "wheelchair_boarding": ""
  },
  {
    "stop_id": "33034",
    "stop_code": "154315",
    "stop_name": "Sindhunagar",
    "stop_desc": "",
    "stop_lat": "18.65588",
    "stop_lon": "73.77098",
    "zone_id": "",
    "stop_url": "",
    "location_type": "",
    "parent_station": "",
    "stop_timezone": "",
    "wheelchair_boarding": ""
  },
  {
    "stop_id": "33035",
    "stop_code": "152288",
    "stop_name": "Ksb Chowk",
    "stop_desc": "",
    "stop_lat": "18.65113",
    "stop_lon": "73.80986",
    "zone_id": "",
    "stop_url": "",
    "location_type": "",
    "parent_station": "",
    "stop_timezone": "",
    "wheelchair_boarding": ""
  },
  {
    "stop_id": "33038",
    "stop_code": "152341",
    "stop_name": "Kusgaon",
    "stop_desc": "",
    "stop_lat": "18.33112",
    "stop_lon": "73.82032",
    "zone_id": "",
    "stop_url": "",
    "location_type": "",
    "parent_station": "",
    "stop_timezone": "",
    "wheelchair_boarding": ""
  },
  {
    "stop_id": "33039",
    "stop_code": "154786",
    "stop_name": "Vanwadi Corner",
    "stop_desc": "",
    "stop_lat": "18.49848",
    "stop_lon": "73.89532",
    "zone_id": "",
    "stop_url": "",
    "location_type": "",
    "parent_station": "",
    "stop_timezone": "",
    "wheelchair_boarding": ""
  },
  {
    "stop_id": "33040",
    "stop_code": "151874",
    "stop_name": "Kadvasti Undri",
    "stop_desc": "",
    "stop_lat": "18.46207",
    "stop_lon": "73.91367",
    "zone_id": "",
    "stop_url": "",
    "location_type": "",
    "parent_station": "",
    "stop_timezone": "",
    "wheelchair_boarding": ""
  },
  {
    "stop_id": "33041",
    "stop_code": "151528",
    "stop_name": "Hanumannagar",
    "stop_desc": "",
    "stop_lat": "18.5261",
    "stop_lon": "73.83169",
    "zone_id": "",
    "stop_url": "",
    "location_type": "",
    "parent_station": "",
    "stop_timezone": "",
    "wheelchair_boarding": ""
  },
  {
    "stop_id": "33043",
    "stop_code": "154497",
    "stop_name": "Swarajnagari",
    "stop_desc": "",
    "stop_lat": "18.72916",
    "stop_lon": "73.65812",
    "zone_id": "",
    "stop_url": "",
    "location_type": "",
    "parent_station": "",
    "stop_timezone": "",
    "wheelchair_boarding": ""
  },
  {
    "stop_id": "33045",
    "stop_code": "155016",
    "stop_name": "Yamunanagar Corner",
    "stop_desc": "",
    "stop_lat": "18.6642",
    "stop_lon": "73.7867",
    "zone_id": "",
    "stop_url": "",
    "location_type": "",
    "parent_station": "",
    "stop_timezone": "",
    "wheelchair_boarding": ""
  },
  {
    "stop_id": "33047",
    "stop_code": "152853",
    "stop_name": "Moi Phata",
    "stop_desc": "",
    "stop_lat": "18.68243",
    "stop_lon": "73.81922",
    "zone_id": "",
    "stop_url": "",
    "location_type": "",
    "parent_station": "",
    "stop_timezone": "",
    "wheelchair_boarding": ""
  },
  {
    "stop_id": "33048",
    "stop_code": "154548",
    "stop_name": "Talyacha Matha",
    "stop_desc": "",
    "stop_lat": "18.71437",
    "stop_lon": "73.77271",
    "zone_id": "",
    "stop_url": "",
    "location_type": "",
    "parent_station": "",
    "stop_timezone": "",
    "wheelchair_boarding": ""
  },
  {
    "stop_id": "33049",
    "stop_code": "154175",
    "stop_name": "Shitalbaug",
    "stop_desc": "",
    "stop_lat": "18.61572",
    "stop_lon": "73.84622",
    "zone_id": "",
    "stop_url": "",
    "location_type": "",
    "parent_station": "",
    "stop_timezone": "",
    "wheelchair_boarding": ""
  },
  {
    "stop_id": "8473",
    "stop_code": "139833",
    "stop_name": "Deccan Gymkhana",
    "stop_desc": "",
    "stop_lat": "18.51674",
    "stop_lon": "73.84292",
    "zone_id": "",
    "stop_url": "",
    "location_type": "",
    "parent_station": "",
    "stop_timezone": "",
    "wheelchair_boarding": ""
  },
  {
    "stop_id": "33050",
    "stop_code": "151760",
    "stop_name": "Jakat Naka Saswad",
    "stop_desc": "",
    "stop_lat": "18.36472",
    "stop_lon": "74.02314",
    "zone_id": "",
    "stop_url": "",
    "location_type": "",
    "parent_station": "",
    "stop_timezone": "",
    "wheelchair_boarding": ""
  },
  {
    "stop_id": "33053",
    "stop_code": "151638",
    "stop_name": "Inamdarvasti Solapur Road",
    "stop_desc": "",
    "stop_lat": "18.48786",
    "stop_lon": "74.11226",
    "zone_id": "",
    "stop_url": "",
    "location_type": "",
    "parent_station": "",
    "stop_timezone": "",
    "wheelchair_boarding": ""
  },
  {
    "stop_id": "33054",
    "stop_code": "152131",
    "stop_name": "Khadi Machine Hinjawadi Road",
    "stop_desc": "",
    "stop_lat": "18.57668",
    "stop_lon": "73.71186",
    "zone_id": "",
    "stop_url": "",
    "location_type": "",
    "parent_station": "",
    "stop_timezone": "",
    "wheelchair_boarding": ""
  },
  {
    "stop_id": "33055",
    "stop_code": "151919",
    "stop_name": "Kalimata Mandir",
    "stop_desc": "",
    "stop_lat": "18.62855",
    "stop_lon": "73.78495",
    "zone_id": "",
    "stop_url": "",
    "location_type": "",
    "parent_station": "",
    "stop_timezone": "",
    "wheelchair_boarding": ""
  },
  {
    "stop_id": "33057",
    "stop_code": "154096",
    "stop_name": "Shasakiya Vishramgruha Paudgaon",
    "stop_desc": "",
    "stop_lat": "18.52421",
    "stop_lon": "73.60775",
    "zone_id": "",
    "stop_url": "",
    "location_type": "",
    "parent_station": "",
    "stop_timezone": "",
    "wheelchair_boarding": ""
  },
  {
    "stop_id": "33058",
    "stop_code": "152626",
    "stop_name": "Mandharevasti",
    "stop_desc": "",
    "stop_lat": "18.39887",
    "stop_lon": "73.76855",
    "zone_id": "",
    "stop_url": "",
    "location_type": "",
    "parent_station": "",
    "stop_timezone": "",
    "wheelchair_boarding": ""
  },
  {
    "stop_id": "33059",
    "stop_code": "153059",
    "stop_name": "Nehrunagar",
    "stop_desc": "",
    "stop_lat": "18.62958",
    "stop_lon": "73.81933",
    "zone_id": "",
    "stop_url": "",
    "location_type": "",
    "parent_station": "",
    "stop_timezone": "",
    "wheelchair_boarding": ""
  },
  {
    "stop_id": "33061",
    "stop_code": "154232",
    "stop_name": "Shivnari Chowk Baner",
    "stop_desc": "",
    "stop_lat": "18.5618",
    "stop_lon": "73.77664",
    "zone_id": "",
    "stop_url": "",
    "location_type": "",
    "parent_station": "",
    "stop_timezone": "",
    "wheelchair_boarding": ""
  },
  {
    "stop_id": "33062",
    "stop_code": "154751",
    "stop_name": "Vadkinala",
    "stop_desc": "",
    "stop_lat": "18.43626",
    "stop_lon": "73.97736",
    "zone_id": "",
    "stop_url": "",
    "location_type": "",
    "parent_station": "",
    "stop_timezone": "",
    "wheelchair_boarding": ""
  },
  {
    "stop_id": "33063",
    "stop_code": "151692",
    "stop_name": "Ingalevasti",
    "stop_desc": "",
    "stop_lat": "18.46587",
    "stop_lon": "73.77693",
    "zone_id": "",
    "stop_url": "",
    "location_type": "",
    "parent_station": "",
    "stop_timezone": "",
    "wheelchair_boarding": ""
  },
  {
    "stop_id": "33064",
    "stop_code": "150954",
    "stop_name": "Detwayalar Company",
    "stop_desc": "",
    "stop_lat": "18.51375",
    "stop_lon": "73.69503",
    "zone_id": "",
    "stop_url": "",
    "location_type": "",
    "parent_station": "",
    "stop_timezone": "",
    "wheelchair_boarding": ""
  },
  {
    "stop_id": "33066",
    "stop_code": "151221",
    "stop_name": "Ganeshnagar Dhayari",
    "stop_desc": "",
    "stop_lat": "18.44885",
    "stop_lon": "73.81066",
    "zone_id": "",
    "stop_url": "",
    "location_type": "",
    "parent_station": "",
    "stop_timezone": "",
    "wheelchair_boarding": ""
  },
  {
    "stop_id": "33067",
    "stop_code": "153838",
    "stop_name": "Saibaba Mandir Karvenagar",
    "stop_desc": "",
    "stop_lat": "18.49517",
    "stop_lon": "73.83073",
    "zone_id": "",
    "stop_url": "",
    "location_type": "",
    "parent_station": "",
    "stop_timezone": "",
    "wheelchair_boarding": ""
  },
  {
    "stop_id": "33068",
    "stop_code": "153925",
    "stop_name": "Sane Chowk",
    "stop_desc": "",
    "stop_lat": "18.66716",
    "stop_lon": "73.79615",
    "zone_id": "",
    "stop_url": "",
    "location_type": "",
    "parent_station": "",
    "stop_timezone": "",
    "wheelchair_boarding": ""
  },
  {
    "stop_id": "33072",
    "stop_code": "153112",
    "stop_name": "Nirma Company",
    "stop_desc": "",
    "stop_lat": "18.64596",
    "stop_lon": "73.88048",
    "zone_id": "",
    "stop_url": "",
    "location_type": "",
    "parent_station": "",
    "stop_timezone": "",
    "wheelchair_boarding": ""
  },
  {
    "stop_id": "33075",
    "stop_code": "150131",
    "stop_name": "Ambedkarnagar Baner",
    "stop_desc": "",
    "stop_lat": "18.55519",
    "stop_lon": "73.79587",
    "zone_id": "",
    "stop_url": "",
    "location_type": "",
    "parent_station": "",
    "stop_timezone": "",
    "wheelchair_boarding": ""
  },
  {
    "stop_id": "33076",
    "stop_code": "150178",
    "stop_name": "Anandnagar Marketyard",
    "stop_desc": "",
    "stop_lat": "18.48206",
    "stop_lon": "73.87189",
    "zone_id": "",
    "stop_url": "",
    "location_type": "",
    "parent_station": "",
    "stop_timezone": "",
    "wheelchair_boarding": ""
  },
  {
    "stop_id": "33077",
    "stop_code": "150231",
    "stop_name": "ARDL Gate",
    "stop_desc": "",
    "stop_lat": "18.53793",
    "stop_lon": "73.80203",
    "zone_id": "",
    "stop_url": "",
    "location_type": "",
    "parent_station": "",
    "stop_timezone": "",
    "wheelchair_boarding": ""
  },
  {
    "stop_id": "33078",
    "stop_code": "150237",
    "stop_name": "Army College",
    "stop_desc": "",
    "stop_lat": "18.52979",
    "stop_lon": "73.90829",
    "zone_id": "",
    "stop_url": "",
    "location_type": "",
    "parent_station": "",
    "stop_timezone": "",
    "wheelchair_boarding": ""
  },
  {
    "stop_id": "33080",
    "stop_code": "154998",
    "stop_name": "West Wing Society",
    "stop_desc": "",
    "stop_lat": "18.54822",
    "stop_lon": "73.77373",
    "zone_id": "",
    "stop_url": "",
    "location_type": "",
    "parent_station": "",
    "stop_timezone": "",
    "wheelchair_boarding": ""
  },
  {
    "stop_id": "33084",
    "stop_code": "151250",
    "stop_name": "Ganganagar Saswad Road",
    "stop_desc": "",
    "stop_lat": "18.48669",
    "stop_lon": "73.95253",
    "zone_id": "",
    "stop_url": "",
    "location_type": "",
    "parent_station": "",
    "stop_timezone": "",
    "wheelchair_boarding": ""
  },
  {
    "stop_id": "33085",
    "stop_code": "153667",
    "stop_name": "Rajmudra Society",
    "stop_desc": "",
    "stop_lat": "18.46256",
    "stop_lon": "73.85319",
    "zone_id": "",
    "stop_url": "",
    "location_type": "",
    "parent_station": "",
    "stop_timezone": "",
    "wheelchair_boarding": ""
  },
  {
    "stop_id": "33086",
    "stop_code": "153051",
    "stop_name": "NDA Gol Market",
    "stop_desc": "",
    "stop_lat": "18.46738",
    "stop_lon": "73.76437",
    "zone_id": "",
    "stop_url": "",
    "location_type": "",
    "parent_station": "",
    "stop_timezone": "",
    "wheelchair_boarding": ""
  },
  {
    "stop_id": "33087",
    "stop_code": "154782",
    "stop_name": "Vanaj Corner",
    "stop_desc": "",
    "stop_lat": "18.50774",
    "stop_lon": "73.80817",
    "zone_id": "",
    "stop_url": "",
    "location_type": "",
    "parent_station": "",
    "stop_timezone": "",
    "wheelchair_boarding": ""
  },
  {
    "stop_id": "33089",
    "stop_code": "150632",
    "stop_name": "Burma Shell",
    "stop_desc": "",
    "stop_lat": "18.57797",
    "stop_lon": "73.9031",
    "zone_id": "",
    "stop_url": "",
    "location_type": "",
    "parent_station": "",
    "stop_timezone": "",
    "wheelchair_boarding": ""
  },
  {
    "stop_id": "33090",
    "stop_code": "151355",
    "stop_name": "Ghulevasti Manjari",
    "stop_desc": "",
    "stop_lat": "18.52522",
    "stop_lon": "73.95974",
    "zone_id": "",
    "stop_url": "",
    "location_type": "",
    "parent_station": "",
    "stop_timezone": "",
    "wheelchair_boarding": ""
  },
  {
    "stop_id": "33091",
    "stop_code": "152021",
    "stop_name": "Kasarsai Karkhana Phata",
    "stop_desc": "",
    "stop_lat": "18.62902",
    "stop_lon": "73.67595",
    "zone_id": "",
    "stop_url": "",
    "location_type": "",
    "parent_station": "",
    "stop_timezone": "",
    "wheelchair_boarding": ""
  },
  {
    "stop_id": "33092",
    "stop_code": "152855",
    "stop_name": "Mominpura",
    "stop_desc": "",
    "stop_lat": "18.50804",
    "stop_lon": "73.86238",
    "zone_id": "",
    "stop_url": "",
    "location_type": "",
    "parent_station": "",
    "stop_timezone": "",
    "wheelchair_boarding": ""
  },
  {
    "stop_id": "33093",
    "stop_code": "154724",
    "stop_name": "Vadgaon BK Highway",
    "stop_desc": "",
    "stop_lat": "18.46626",
    "stop_lon": "73.817",
    "zone_id": "",
    "stop_url": "",
    "location_type": "",
    "parent_station": "",
    "stop_timezone": "",
    "wheelchair_boarding": ""
  },
  {
    "stop_id": "16709",
    "stop_code": "118487",
    "stop_name": "Bahirwade Kridangan",
    "stop_desc": "",
    "stop_lat": "18.66176",
    "stop_lon": "73.80792",
    "zone_id": "",
    "stop_url": "",
    "location_type": "",
    "parent_station": "",
    "stop_timezone": "",
    "wheelchair_boarding": ""
  },
  {
    "stop_id": "33094",
    "stop_code": "152978",
    "stop_name": "Nanded City",
    "stop_desc": "",
    "stop_lat": "18.45709",
    "stop_lon": "73.80149",
    "zone_id": "",
    "stop_url": "",
    "location_type": "",
    "parent_station": "",
    "stop_timezone": "",
    "wheelchair_boarding": ""
  },
  {
    "stop_id": "33095",
    "stop_code": "154473",
    "stop_name": "Suskhind Phata Sus Road",
    "stop_desc": "",
    "stop_lat": "18.54729",
    "stop_lon": "73.77274",
    "zone_id": "",
    "stop_url": "",
    "location_type": "",
    "parent_station": "",
    "stop_timezone": "",
    "wheelchair_boarding": ""
  },
  {
    "stop_id": "33097",
    "stop_code": "152796",
    "stop_name": "Mile Dagad Kramank 21 Diveghat",
    "stop_desc": "",
    "stop_lat": "18.42112",
    "stop_lon": "73.98888",
    "zone_id": "",
    "stop_url": "",
    "location_type": "",
    "parent_station": "",
    "stop_timezone": "",
    "wheelchair_boarding": ""
  },
  {
    "stop_id": "33099",
    "stop_code": "154460",
    "stop_name": "Surgeon Quarters",
    "stop_desc": "",
    "stop_lat": "18.55427",
    "stop_lon": "73.85664",
    "zone_id": "",
    "stop_url": "",
    "location_type": "",
    "parent_station": "",
    "stop_timezone": "",
    "wheelchair_boarding": ""
  },
  {
    "stop_id": "33100",
    "stop_code": "151809",
    "stop_name": "Jilha Parishad",
    "stop_desc": "",
    "stop_lat": "18.5238",
    "stop_lon": "73.86994",
    "zone_id": "",
    "stop_url": "",
    "location_type": "",
    "parent_station": "",
    "stop_timezone": "",
    "wheelchair_boarding": ""
  },
  {
    "stop_id": "33101",
    "stop_code": "154371",
    "stop_name": "Sortapwadi",
    "stop_desc": "",
    "stop_lat": "18.48797",
    "stop_lon": "74.09902",
    "zone_id": "",
    "stop_url": "",
    "location_type": "",
    "parent_station": "",
    "stop_timezone": "",
    "wheelchair_boarding": ""
  },
  {
    "stop_id": "33103",
    "stop_code": "154066",
    "stop_name": "Shanipar",
    "stop_desc": "",
    "stop_lat": "18.51223",
    "stop_lon": "73.85378",
    "zone_id": "",
    "stop_url": "",
    "location_type": "",
    "parent_station": "",
    "stop_timezone": "",
    "wheelchair_boarding": ""
  },
  {
    "stop_id": "33104",
    "stop_code": "152345",
    "stop_name": "Kutalevasti",
    "stop_desc": "",
    "stop_lat": "18.56226",
    "stop_lon": "74.04708",
    "zone_id": "",
    "stop_url": "",
    "location_type": "",
    "parent_station": "",
    "stop_timezone": "",
    "wheelchair_boarding": ""
  },
  {
    "stop_id": "33105",
    "stop_code": "153340",
    "stop_name": "Peth",
    "stop_desc": "",
    "stop_lat": "18.34737",
    "stop_lon": "73.75745",
    "zone_id": "",
    "stop_url": "",
    "location_type": "",
    "parent_station": "",
    "stop_timezone": "",
    "wheelchair_boarding": ""
  },
  {
    "stop_id": "33106",
    "stop_code": "154297",
    "stop_name": "Siddhivinayak Vastu",
    "stop_desc": "",
    "stop_lat": "18.48257",
    "stop_lon": "73.93145",
    "zone_id": "",
    "stop_url": "",
    "location_type": "",
    "parent_station": "",
    "stop_timezone": "",
    "wheelchair_boarding": ""
  },
  {
    "stop_id": "33108",
    "stop_code": "151183",
    "stop_name": "Gandharvanagari",
    "stop_desc": "",
    "stop_lat": "18.6482",
    "stop_lon": "73.85063",
    "zone_id": "",
    "stop_url": "",
    "location_type": "",
    "parent_station": "",
    "stop_timezone": "",
    "wheelchair_boarding": ""
  },
  {
    "stop_id": "33109",
    "stop_code": "150235",
    "stop_name": "ARDL Office",
    "stop_desc": "",
    "stop_lat": "18.53801",
    "stop_lon": "73.80232",
    "zone_id": "",
    "stop_url": "",
    "location_type": "",
    "parent_station": "",
    "stop_timezone": "",
    "wheelchair_boarding": ""
  },
  {
    "stop_id": "33110",
    "stop_code": "152106",
    "stop_name": "Kendurgaon",
    "stop_desc": "",
    "stop_lat": "18.78274",
    "stop_lon": "74.04112",
    "zone_id": "",
    "stop_url": "",
    "location_type": "",
    "parent_station": "",
    "stop_timezone": "",
    "wheelchair_boarding": ""
  },
  {
    "stop_id": "33111",
    "stop_code": "154132",
    "stop_name": "Shikshaknagar",
    "stop_desc": "",
    "stop_lat": "18.51023",
    "stop_lon": "73.80332",
    "zone_id": "",
    "stop_url": "",
    "location_type": "",
    "parent_station": "",
    "stop_timezone": "",
    "wheelchair_boarding": ""
  },
  {
    "stop_id": "33112",
    "stop_code": "153846",
    "stop_name": "Sai Chowk Navi sangvi",
    "stop_desc": "",
    "stop_lat": "18.57861",
    "stop_lon": "73.81603",
    "zone_id": "",
    "stop_url": "",
    "location_type": "",
    "parent_station": "",
    "stop_timezone": "",
    "wheelchair_boarding": ""
  },
  {
    "stop_id": "33113",
    "stop_code": "151904",
    "stop_name": "Kale Colony",
    "stop_desc": "",
    "stop_lat": "18.49575",
    "stop_lon": "73.93293",
    "zone_id": "",
    "stop_url": "",
    "location_type": "",
    "parent_station": "",
    "stop_timezone": "",
    "wheelchair_boarding": ""
  },
  {
    "stop_id": "33114",
    "stop_code": "153322",
    "stop_name": "PCP College Chowk",
    "stop_desc": "",
    "stop_lat": "18.65052",
    "stop_lon": "73.76304",
    "zone_id": "",
    "stop_url": "",
    "location_type": "",
    "parent_station": "",
    "stop_timezone": "",
    "wheelchair_boarding": ""
  },
  {
    "stop_id": "33115",
    "stop_code": "151316",
    "stop_name": "General Motors",
    "stop_desc": "",
    "stop_lat": "18.78927",
    "stop_lon": "73.69447",
    "zone_id": "",
    "stop_url": "",
    "location_type": "",
    "parent_station": "",
    "stop_timezone": "",
    "wheelchair_boarding": ""
  },
  {
    "stop_id": "33116",
    "stop_code": "151361",
    "stop_name": "Girls Hostel",
    "stop_desc": "",
    "stop_lat": "18.47361",
    "stop_lon": "73.9317",
    "zone_id": "",
    "stop_url": "",
    "location_type": "",
    "parent_station": "",
    "stop_timezone": "",
    "wheelchair_boarding": ""
  },
  {
    "stop_id": "33117",
    "stop_code": "152983",
    "stop_name": "Nandgude Shala",
    "stop_desc": "",
    "stop_lat": "18.58246",
    "stop_lon": "73.78335",
    "zone_id": "",
    "stop_url": "",
    "location_type": "",
    "parent_station": "",
    "stop_timezone": "",
    "wheelchair_boarding": ""
  },
  {
    "stop_id": "33118",
    "stop_code": "154174",
    "stop_name": "Shitaladevi Chowk Pimplegurav",
    "stop_desc": "",
    "stop_lat": "18.58198",
    "stop_lon": "73.82998",
    "zone_id": "",
    "stop_url": "",
    "location_type": "",
    "parent_station": "",
    "stop_timezone": "",
    "wheelchair_boarding": ""
  },
  {
    "stop_id": "33119",
    "stop_code": "152111",
    "stop_name": "Keshavnagar Chowk",
    "stop_desc": "",
    "stop_lat": "18.53201",
    "stop_lon": "73.93722",
    "zone_id": "",
    "stop_url": "",
    "location_type": "",
    "parent_station": "",
    "stop_timezone": "",
    "wheelchair_boarding": ""
  },
  {
    "stop_id": "33120",
    "stop_code": "154908",
    "stop_name": "Vitthal Mandir Hadapsar",
    "stop_desc": "",
    "stop_lat": "18.50801",
    "stop_lon": "73.94165",
    "zone_id": "",
    "stop_url": "",
    "location_type": "",
    "parent_station": "",
    "stop_timezone": "",
    "wheelchair_boarding": ""
  },
  {
    "stop_id": "33121",
    "stop_code": "153081",
    "stop_name": "Newale Chowk",
    "stop_desc": "",
    "stop_lat": "18.66424",
    "stop_lon": "73.80707",
    "zone_id": "",
    "stop_url": "",
    "location_type": "",
    "parent_station": "",
    "stop_timezone": "",
    "wheelchair_boarding": ""
  },
  {
    "stop_id": "33123",
    "stop_code": "151418",
    "stop_name": "Goodluck Chowk",
    "stop_desc": "",
    "stop_lat": "18.5176",
    "stop_lon": "73.84146",
    "zone_id": "",
    "stop_url": "",
    "location_type": "",
    "parent_station": "",
    "stop_timezone": "",
    "wheelchair_boarding": ""
  },
  {
    "stop_id": "33124",
    "stop_code": "151813",
    "stop_name": "Jilha Parishad Shala",
    "stop_desc": "",
    "stop_lat": "18.34714",
    "stop_lon": "73.7928",
    "zone_id": "",
    "stop_url": "",
    "location_type": "",
    "parent_station": "",
    "stop_timezone": "",
    "wheelchair_boarding": ""
  },
  {
    "stop_id": "33125",
    "stop_code": "154857",
    "stop_name": "Vipraj Company",
    "stop_desc": "",
    "stop_lat": "18.71699",
    "stop_lon": "73.67827",
    "zone_id": "",
    "stop_url": "",
    "location_type": "",
    "parent_station": "",
    "stop_timezone": "",
    "wheelchair_boarding": ""
  },
  {
    "stop_id": "33126",
    "stop_code": "150186",
    "stop_name": "Anand Park",
    "stop_desc": "",
    "stop_lat": "18.55592",
    "stop_lon": "73.80915",
    "zone_id": "",
    "stop_url": "",
    "location_type": "",
    "parent_station": "",
    "stop_timezone": "",
    "wheelchair_boarding": ""
  },
  {
    "stop_id": "33128",
    "stop_code": "150974",
    "stop_name": "Dhangarvasti",
    "stop_desc": "",
    "stop_lat": "18.50755",
    "stop_lon": "74.11239",
    "zone_id": "",
    "stop_url": "",
    "location_type": "",
    "parent_station": "",
    "stop_timezone": "",
    "wheelchair_boarding": ""
  },
  {
    "stop_id": "33129",
    "stop_code": "154827",
    "stop_name": "Vetalbaba Chowk",
    "stop_desc": "",
    "stop_lat": "18.5291",
    "stop_lon": "73.83076",
    "zone_id": "",
    "stop_url": "",
    "location_type": "",
    "parent_station": "",
    "stop_timezone": "",
    "wheelchair_boarding": ""
  },
  {
    "stop_id": "33130",
    "stop_code": "153290",
    "stop_name": "Patrakarnagar",
    "stop_desc": "",
    "stop_lat": "18.52419",
    "stop_lon": "73.82777",
    "zone_id": "",
    "stop_url": "",
    "location_type": "",
    "parent_station": "",
    "stop_timezone": "",
    "wheelchair_boarding": ""
  },
  {
    "stop_id": "33133",
    "stop_code": "154643",
    "stop_name": "Tolani Institute",
    "stop_desc": "",
    "stop_lat": "18.73805",
    "stop_lon": "73.73079",
    "zone_id": "",
    "stop_url": "",
    "location_type": "",
    "parent_station": "",
    "stop_timezone": "",
    "wheelchair_boarding": ""
  },
  {
    "stop_id": "33137",
    "stop_code": "150900",
    "stop_name": "Daulatnagar Dhankawadi Road",
    "stop_desc": "",
    "stop_lat": "18.46392",
    "stop_lon": "73.85662",
    "zone_id": "",
    "stop_url": "",
    "location_type": "",
    "parent_station": "",
    "stop_timezone": "",
    "wheelchair_boarding": ""
  },
  {
    "stop_id": "33138",
    "stop_code": "153958",
    "stop_name": "Sant Gadge Maharaj Shala",
    "stop_desc": "",
    "stop_lat": "18.5343",
    "stop_lon": "73.88576",
    "zone_id": "",
    "stop_url": "",
    "location_type": "",
    "parent_station": "",
    "stop_timezone": "",
    "wheelchair_boarding": ""
  },
  {
    "stop_id": "33139",
    "stop_code": "154689",
    "stop_name": "United Western Sabhagrugha",
    "stop_desc": "",
    "stop_lat": "18.4932",
    "stop_lon": "73.8278",
    "zone_id": "",
    "stop_url": "",
    "location_type": "",
    "parent_station": "",
    "stop_timezone": "",
    "wheelchair_boarding": ""
  },
  {
    "stop_id": "33140",
    "stop_code": "152897",
    "stop_name": "MSB Pumping Station",
    "stop_desc": "",
    "stop_lat": "18.5375",
    "stop_lon": "73.79626",
    "zone_id": "",
    "stop_url": "",
    "location_type": "",
    "parent_station": "",
    "stop_timezone": "",
    "wheelchair_boarding": ""
  },
  {
    "stop_id": "33141",
    "stop_code": "153948",
    "stop_name": "Sangvi Phata",
    "stop_desc": "",
    "stop_lat": "18.57354",
    "stop_lon": "73.80623",
    "zone_id": "",
    "stop_url": "",
    "location_type": "",
    "parent_station": "",
    "stop_timezone": "",
    "wheelchair_boarding": ""
  },
  {
    "stop_id": "33145",
    "stop_code": "152625",
    "stop_name": "Mandai Stand",
    "stop_desc": "",
    "stop_lat": "18.51513",
    "stop_lon": "73.85637",
    "zone_id": "",
    "stop_url": "",
    "location_type": "",
    "parent_station": "",
    "stop_timezone": "",
    "wheelchair_boarding": ""
  },
  {
    "stop_id": "33146",
    "stop_code": "151782",
    "stop_name": "Jawalgaon",
    "stop_desc": "",
    "stop_lat": "18.59117",
    "stop_lon": "73.6107",
    "zone_id": "",
    "stop_url": "",
    "location_type": "",
    "parent_station": "",
    "stop_timezone": "",
    "wheelchair_boarding": ""
  },
  {
    "stop_id": "33147",
    "stop_code": "154150",
    "stop_name": "Shindevasti Burkegaon",
    "stop_desc": "",
    "stop_lat": "18.61906",
    "stop_lon": "74.11154",
    "zone_id": "",
    "stop_url": "",
    "location_type": "",
    "parent_station": "",
    "stop_timezone": "",
    "wheelchair_boarding": ""
  },
  {
    "stop_id": "33149",
    "stop_code": "152017",
    "stop_name": "Kasarsai",
    "stop_desc": "",
    "stop_lat": "18.62783",
    "stop_lon": "73.67857",
    "zone_id": "",
    "stop_url": "",
    "location_type": "",
    "parent_station": "",
    "stop_timezone": "",
    "wheelchair_boarding": ""
  },
  {
    "stop_id": "33150",
    "stop_code": "152593",
    "stop_name": "Manajinagar",
    "stop_desc": "",
    "stop_lat": "18.45346",
    "stop_lon": "73.82444",
    "zone_id": "",
    "stop_url": "",
    "location_type": "",
    "parent_station": "",
    "stop_timezone": "",
    "wheelchair_boarding": ""
  },
  {
    "stop_id": "33151",
    "stop_code": "154278",
    "stop_name": "Shreeman Society",
    "stop_desc": "",
    "stop_lat": "18.49205",
    "stop_lon": "73.82024",
    "zone_id": "",
    "stop_url": "",
    "location_type": "",
    "parent_station": "",
    "stop_timezone": "",
    "wheelchair_boarding": ""
  },
  {
    "stop_id": "33152",
    "stop_code": "153842",
    "stop_name": "Saibaba Mandir Materewadi",
    "stop_desc": "",
    "stop_lat": "18.56781",
    "stop_lon": "73.66213",
    "zone_id": "",
    "stop_url": "",
    "location_type": "",
    "parent_station": "",
    "stop_timezone": "",
    "wheelchair_boarding": ""
  },
  {
    "stop_id": "386",
    "stop_code": "30018",
    "stop_name": "Ma Na Pa",
    "stop_desc": "",
    "stop_lat": "18.52382",
    "stop_lon": "73.85411",
    "zone_id": "",
    "stop_url": "",
    "location_type": "",
    "parent_station": "",
    "stop_timezone": "",
    "wheelchair_boarding": ""
  },
  {
    "stop_id": "33155",
    "stop_code": "151171",
    "stop_name": "Gajanan Maharaj Mandir Alandi Road",
    "stop_desc": "",
    "stop_lat": "18.63188",
    "stop_lon": "73.87263",
    "zone_id": "",
    "stop_url": "",
    "location_type": "",
    "parent_station": "",
    "stop_timezone": "",
    "wheelchair_boarding": ""
  },
  {
    "stop_id": "33158",
    "stop_code": "154377",
    "stop_name": "Spicer College",
    "stop_desc": "",
    "stop_lat": "18.56283",
    "stop_lon": "73.81808",
    "zone_id": "",
    "stop_url": "",
    "location_type": "",
    "parent_station": "",
    "stop_timezone": "",
    "wheelchair_boarding": ""
  },
  {
    "stop_id": "33159",
    "stop_code": "154681",
    "stop_name": "Udaybaug",
    "stop_desc": "",
    "stop_lat": "18.51118",
    "stop_lon": "73.9071",
    "zone_id": "",
    "stop_url": "",
    "location_type": "",
    "parent_station": "",
    "stop_timezone": "",
    "wheelchair_boarding": ""
  },
  {
    "stop_id": "33161",
    "stop_code": "152583",
    "stop_name": "Malwadi Markal Road",
    "stop_desc": "",
    "stop_lat": "18.65456",
    "stop_lon": "74.01468",
    "zone_id": "",
    "stop_url": "",
    "location_type": "",
    "parent_station": "",
    "stop_timezone": "",
    "wheelchair_boarding": ""
  },
  {
    "stop_id": "33162",
    "stop_code": "151940",
    "stop_name": "Kalukh Shetmala",
    "stop_desc": "",
    "stop_lat": "18.68075",
    "stop_lon": "74.04199",
    "zone_id": "",
    "stop_url": "",
    "location_type": "",
    "parent_station": "",
    "stop_timezone": "",
    "wheelchair_boarding": ""
  },
  {
    "stop_id": "33163",
    "stop_code": "153625",
    "stop_name": "Railway Gate Uralikanchan",
    "stop_desc": "",
    "stop_lat": "18.49526",
    "stop_lon": "74.12448",
    "zone_id": "",
    "stop_url": "",
    "location_type": "",
    "parent_station": "",
    "stop_timezone": "",
    "wheelchair_boarding": ""
  },
  {
    "stop_id": "33164",
    "stop_code": "154137",
    "stop_name": "Shinde Chhatri",
    "stop_desc": "",
    "stop_lat": "18.49262",
    "stop_lon": "73.89436",
    "zone_id": "",
    "stop_url": "",
    "location_type": "",
    "parent_station": "",
    "stop_timezone": "",
    "wheelchair_boarding": ""
  },
  {
    "stop_id": "33165",
    "stop_code": "152232",
    "stop_name": "Kondhwa Kh",
    "stop_desc": "",
    "stop_lat": "18.47281",
    "stop_lon": "73.88916",
    "zone_id": "",
    "stop_url": "",
    "location_type": "",
    "parent_station": "",
    "stop_timezone": "",
    "wheelchair_boarding": ""
  },
  {
    "stop_id": "33168",
    "stop_code": "152568",
    "stop_name": "Malkhed",
    "stop_desc": "",
    "stop_lat": "18.39322",
    "stop_lon": "73.70283",
    "zone_id": "",
    "stop_url": "",
    "location_type": "",
    "parent_station": "",
    "stop_timezone": "",
    "wheelchair_boarding": ""
  },
  {
    "stop_id": "33170",
    "stop_code": "150768",
    "stop_name": "Chutkevasti",
    "stop_desc": "",
    "stop_lat": "18.50128",
    "stop_lon": "73.74458",
    "zone_id": "",
    "stop_url": "",
    "location_type": "",
    "parent_station": "",
    "stop_timezone": "",
    "wheelchair_boarding": ""
  },
  {
    "stop_id": "33171",
    "stop_code": "151428",
    "stop_name": "Gorhe Bk Shala",
    "stop_desc": "",
    "stop_lat": "18.41797",
    "stop_lon": "73.75788",
    "zone_id": "",
    "stop_url": "",
    "location_type": "",
    "parent_station": "",
    "stop_timezone": "",
    "wheelchair_boarding": ""
  },
  {
    "stop_id": "33172",
    "stop_code": "151196",
    "stop_name": "Ganeshmala",
    "stop_desc": "",
    "stop_lat": "18.49641",
    "stop_lon": "73.83877",
    "zone_id": "",
    "stop_url": "",
    "location_type": "",
    "parent_station": "",
    "stop_timezone": "",
    "wheelchair_boarding": ""
  },
  {
    "stop_id": "33173",
    "stop_code": "151854",
    "stop_name": "Jyoti English School",
    "stop_desc": "",
    "stop_lat": "18.63053",
    "stop_lon": "73.82387",
    "zone_id": "",
    "stop_url": "",
    "location_type": "",
    "parent_station": "",
    "stop_timezone": "",
    "wheelchair_boarding": ""
  },
  {
    "stop_id": "33174",
    "stop_code": "154283",
    "stop_name": "Shreenagar",
    "stop_desc": "",
    "stop_lat": "18.60796",
    "stop_lon": "73.78102",
    "zone_id": "",
    "stop_url": "",
    "location_type": "",
    "parent_station": "",
    "stop_timezone": "",
    "wheelchair_boarding": ""
  },
  {
    "stop_id": "33175",
    "stop_code": "152258",
    "stop_name": "Kousarbaug",
    "stop_desc": "",
    "stop_lat": "18.47785",
    "stop_lon": "73.89093",
    "zone_id": "",
    "stop_url": "",
    "location_type": "",
    "parent_station": "",
    "stop_timezone": "",
    "wheelchair_boarding": ""
  },
  {
    "stop_id": "33176",
    "stop_code": "152826",
    "stop_name": "MM School",
    "stop_desc": "",
    "stop_lat": "18.61493",
    "stop_lon": "73.78552",
    "zone_id": "",
    "stop_url": "",
    "location_type": "",
    "parent_station": "",
    "stop_timezone": "",
    "wheelchair_boarding": ""
  },
  {
    "stop_id": "33179",
    "stop_code": "151956",
    "stop_name": "Kamala Nehru Hospital",
    "stop_desc": "",
    "stop_lat": "18.52256",
    "stop_lon": "73.8622",
    "zone_id": "",
    "stop_url": "",
    "location_type": "",
    "parent_station": "",
    "stop_timezone": "",
    "wheelchair_boarding": ""
  },
  {
    "stop_id": "33180",
    "stop_code": "154762",
    "stop_name": "Vajewadi Chaufula",
    "stop_desc": "",
    "stop_lat": "18.71582",
    "stop_lon": "74.04668",
    "zone_id": "",
    "stop_url": "",
    "location_type": "",
    "parent_station": "",
    "stop_timezone": "",
    "wheelchair_boarding": ""
  },
  {
    "stop_id": "33183",
    "stop_code": "153833",
    "stop_name": "Sahwas Corner",
    "stop_desc": "",
    "stop_lat": "18.49262",
    "stop_lon": "73.81838",
    "zone_id": "",
    "stop_url": "",
    "location_type": "",
    "parent_station": "",
    "stop_timezone": "",
    "wheelchair_boarding": ""
  },
  {
    "stop_id": "33184",
    "stop_code": "152557",
    "stop_name": "Mahindra Company",
    "stop_desc": "",
    "stop_lat": "18.6285",
    "stop_lon": "73.80752",
    "zone_id": "",
    "stop_url": "",
    "location_type": "",
    "parent_station": "",
    "stop_timezone": "",
    "wheelchair_boarding": ""
  },
  {
    "stop_id": "33185",
    "stop_code": "152924",
    "stop_name": "Mundhwa Gaon",
    "stop_desc": "",
    "stop_lat": "18.53252",
    "stop_lon": "73.93281",
    "zone_id": "",
    "stop_url": "",
    "location_type": "",
    "parent_station": "",
    "stop_timezone": "",
    "wheelchair_boarding": ""
  },
  {
    "stop_id": "33186",
    "stop_code": "153954",
    "stop_name": "Sant Company",
    "stop_desc": "",
    "stop_lat": "18.51763",
    "stop_lon": "73.64394",
    "zone_id": "",
    "stop_url": "",
    "location_type": "",
    "parent_station": "",
    "stop_timezone": "",
    "wheelchair_boarding": ""
  },
  {
    "stop_id": "33187",
    "stop_code": "154411",
    "stop_name": "Station Family Camp",
    "stop_desc": "",
    "stop_lat": "18.52324",
    "stop_lon": "73.88685",
    "zone_id": "",
    "stop_url": "",
    "location_type": "",
    "parent_station": "",
    "stop_timezone": "",
    "wheelchair_boarding": ""
  },
  {
    "stop_id": "33188",
    "stop_code": "151686",
    "stop_name": "Ingale Hospital",
    "stop_desc": "",
    "stop_lat": "18.61879",
    "stop_lon": "73.79274",
    "zone_id": "",
    "stop_url": "",
    "location_type": "",
    "parent_station": "",
    "stop_timezone": "",
    "wheelchair_boarding": ""
  },
  {
    "stop_id": "33189",
    "stop_code": "153897",
    "stop_name": "Salve Garden",
    "stop_desc": "",
    "stop_lat": "18.45826",
    "stop_lon": "73.87797",
    "zone_id": "",
    "stop_url": "",
    "location_type": "",
    "parent_station": "",
    "stop_timezone": "",
    "wheelchair_boarding": ""
  },
  {
    "stop_id": "33191",
    "stop_code": "152631",
    "stop_name": "Mandvi Kh",
    "stop_desc": "",
    "stop_lat": "18.41423",
    "stop_lon": "73.70907",
    "zone_id": "",
    "stop_url": "",
    "location_type": "",
    "parent_station": "",
    "stop_timezone": "",
    "wheelchair_boarding": ""
  },
  {
    "stop_id": "33192",
    "stop_code": "152921",
    "stop_name": "Mundhwagaon",
    "stop_desc": "",
    "stop_lat": "18.53284",
    "stop_lon": "73.93369",
    "zone_id": "",
    "stop_url": "",
    "location_type": "",
    "parent_station": "",
    "stop_timezone": "",
    "wheelchair_boarding": ""
  },
  {
    "stop_id": "33193",
    "stop_code": "153896",
    "stop_name": "Salve Garden",
    "stop_desc": "",
    "stop_lat": "18.458",
    "stop_lon": "73.87794",
    "zone_id": "",
    "stop_url": "",
    "location_type": "",
    "parent_station": "",
    "stop_timezone": "",
    "wheelchair_boarding": ""
  },
  {
    "stop_id": "33195",
    "stop_code": "153314",
    "stop_name": "Pawarvasti Chikhali Road",
    "stop_desc": "",
    "stop_lat": "18.66682",
    "stop_lon": "73.81499",
    "zone_id": "",
    "stop_url": "",
    "location_type": "",
    "parent_station": "",
    "stop_timezone": "",
    "wheelchair_boarding": ""
  },
  {
    "stop_id": "33196",
    "stop_code": "155058",
    "stop_name": "Zendewadi",
    "stop_desc": "",
    "stop_lat": "18.41524",
    "stop_lon": "74.00554",
    "zone_id": "",
    "stop_url": "",
    "location_type": "",
    "parent_station": "",
    "stop_timezone": "",
    "wheelchair_boarding": ""
  },
  {
    "stop_id": "33198",
    "stop_code": "152072",
    "stop_name": "Kawdewadi",
    "stop_desc": "",
    "stop_lat": "18.53787",
    "stop_lon": "73.89256",
    "zone_id": "",
    "stop_url": "",
    "location_type": "",
    "parent_station": "",
    "stop_timezone": "",
    "wheelchair_boarding": ""
  },
  {
    "stop_id": "33200",
    "stop_code": "154105",
    "stop_name": "Shatrunjay Mandir",
    "stop_desc": "",
    "stop_lat": "18.45058",
    "stop_lon": "73.87961",
    "zone_id": "",
    "stop_url": "",
    "location_type": "",
    "parent_station": "",
    "stop_timezone": "",
    "wheelchair_boarding": ""
  },
  {
    "stop_id": "33201",
    "stop_code": "154797",
    "stop_name": "Vasantbaug",
    "stop_desc": "",
    "stop_lat": "18.4809",
    "stop_lon": "73.86145",
    "zone_id": "",
    "stop_url": "",
    "location_type": "",
    "parent_station": "",
    "stop_timezone": "",
    "wheelchair_boarding": ""
  },
  {
    "stop_id": "33202",
    "stop_code": "154678",
    "stop_name": "U Co Bank",
    "stop_desc": "",
    "stop_lat": "18.47903",
    "stop_lon": "73.89065",
    "zone_id": "",
    "stop_url": "",
    "location_type": "",
    "parent_station": "",
    "stop_timezone": "",
    "wheelchair_boarding": ""
  },
  {
    "stop_id": "33204",
    "stop_code": "151597",
    "stop_name": "Hotel Rajyog",
    "stop_desc": "",
    "stop_lat": "18.54879",
    "stop_lon": "73.66851",
    "zone_id": "",
    "stop_url": "",
    "location_type": "",
    "parent_station": "",
    "stop_timezone": "",
    "wheelchair_boarding": ""
  },
  {
    "stop_id": "437",
    "stop_code": "30002",
    "stop_name": "Bhairav Nagar",
    "stop_desc": "",
    "stop_lat": "18.58269",
    "stop_lon": "73.88313",
    "zone_id": "",
    "stop_url": "",
    "location_type": "",
    "parent_station": "",
    "stop_timezone": "",
    "wheelchair_boarding": ""
  },
  {
    "stop_id": "33207",
    "stop_code": "151843",
    "stop_name": "Juna Pulgate",
    "stop_desc": "",
    "stop_lat": "18.50586",
    "stop_lon": "73.87846",
    "zone_id": "",
    "stop_url": "",
    "location_type": "",
    "parent_station": "",
    "stop_timezone": "",
    "wheelchair_boarding": ""
  },
  {
    "stop_id": "33208",
    "stop_code": "150400",
    "stop_name": "Bavdhangaon",
    "stop_desc": "",
    "stop_lat": "18.51539",
    "stop_lon": "73.78214",
    "zone_id": "",
    "stop_url": "",
    "location_type": "",
    "parent_station": "",
    "stop_timezone": "",
    "wheelchair_boarding": ""
  },
  {
    "stop_id": "440",
    "stop_code": "30005",
    "stop_name": "Dhanori Gaon",
    "stop_desc": "",
    "stop_lat": "18.59544",
    "stop_lon": "73.89438",
    "zone_id": "",
    "stop_url": "",
    "location_type": "",
    "parent_station": "",
    "stop_timezone": "",
    "wheelchair_boarding": ""
  },
  {
    "stop_id": "441",
    "stop_code": "30006",
    "stop_name": "Dhanori Shala",
    "stop_desc": "",
    "stop_lat": "18.59212",
    "stop_lon": "73.89052",
    "zone_id": "",
    "stop_url": "",
    "location_type": "",
    "parent_station": "",
    "stop_timezone": "",
    "wheelchair_boarding": ""
  },
  {
    "stop_id": "33210",
    "stop_code": "150769",
    "stop_name": "Cipla Center",
    "stop_desc": "",
    "stop_lat": "18.48546",
    "stop_lon": "73.79801",
    "zone_id": "",
    "stop_url": "",
    "location_type": "",
    "parent_station": "",
    "stop_timezone": "",
    "wheelchair_boarding": ""
  },
  {
    "stop_id": "442",
    "stop_code": "30007",
    "stop_name": "Gokul Nagar",
    "stop_desc": "",
    "stop_lat": "18.58775",
    "stop_lon": "73.88701",
    "zone_id": "",
    "stop_url": "",
    "location_type": "",
    "parent_station": "",
    "stop_timezone": "",
    "wheelchair_boarding": ""
  },
  {
    "stop_id": "33211",
    "stop_code": "150554",
    "stop_name": "Bhumkarnagar",
    "stop_desc": "",
    "stop_lat": "18.4493",
    "stop_lon": "73.83435",
    "zone_id": "",
    "stop_url": "",
    "location_type": "",
    "parent_station": "",
    "stop_timezone": "",
    "wheelchair_boarding": ""
  },